{"name": "东京", "lng": 139.691711, "lat": 35.689499}
{"name": "横滨市", "lng": 139.642502, "lat": 35.447781}
{"name": "名古屋", "lng": 136.906403, "lat": 35.181469}
{"name": "大阪", "lng": 135.502182, "lat": 34.693741}
{"name": "京都", "lng": 135.753845, "lat": 35.021069}
{"name": "奈良", "lng": 135.804855, "lat": 34.685051}
{"name": "神户", "lng": 135.182999, "lat": 34.691299}
{"name": "高知", "lng": 133.531113, "lat": 33.559719}
{"name": "广岛", "lng": 132.459366, "lat": 34.396271}
{"name": "福冈", "lng": 130.41806, "lat": 33.606392}
{"name": "北九州", "lng": 130.833328, "lat": 33.833328}
{"name": "长崎", "lng": 129.873611, "lat": 32.74472}
{"name": "仙台", "lng": 140.871933, "lat": 38.26889}
{"name": "长野", "lng": 138.181107, "lat": 36.65139}
{"name": "新泻", "lng": 139.023605, "lat": 37.902222}
{"name": "青森", "lng": 140.740005, "lat": 40.82444}
{"name": "札幌", "lng": 141.346939, "lat": 43.064171}
{"name": "鹿儿岛", "lng": 130.558136, "lat": 31.560181}
{"name": "那霸", "lng": 127.681107, "lat": 26.2125}
{"name": "德里", "lng": 77.216667, "lat": 28.666668}
{"name": "孟买", "lng": 72.847939, "lat": 19.01441}
{"name": "加尔各答", "lng": 88.36972, "lat": 22.569719}
{"name": "维萨卡帕特南", "lng": 83.209251, "lat": 17.690041}
{"name": "金奈", "lng": 80.278473, "lat": 13.08784}
{"name": "马杜赖", "lng": 78.116669, "lat": 9.93333}
{"name": "班加罗尔", "lng": 77.603287, "lat": 12.97623}
{"name": "海德拉巴", "lng": 78.474442, "lat": 17.37528}
{"name": "那格浦尔", "lng": 79.099998, "lat": 21.15}
{"name": "浦那", "lng": 73.855347, "lat": 18.519569}
{"name": "苏拉特", "lng": 72.833328, "lat": 21.16667}
{"name": "艾哈迈达巴德", "lng": 72.616669, "lat": 23.033333}
{"name": "比卡内尔", "lng": 73.300003, "lat": 28.01667}
{"name": "卢迪亚纳", "lng": 75.849998, "lat": 30.9}
{"name": "斯利那加", "lng": 74.816673, "lat": 34.083328}
{"name": "斋浦尔", "lng": 75.816666, "lat": 26.916668}
{"name": "阿格拉", "lng": 78.01667, "lat": 27.183332}
{"name": "坎普尔", "lng": 80.349998, "lat": 26.466667}
{"name": "勒克瑙", "lng": 80.916664, "lat": 26.85}
{"name": "巴特那", "lng": 85.116669, "lat": 25.6}
{"name": "英帕尔", "lng": 93.949997, "lat": 24.816669}
{"name": "雅加达", "lng": 106.845131, "lat": -6.21462}
{"name": "万隆", "lng": 107.618607, "lat": -6.90389}
{"name": "棉兰", "lng": 98.666672, "lat": 3.58333}
{"name": "巴东", "lng": 100.354271, "lat": -0.94924}
{"name": "巨港", "lng": 104.745796, "lat": -2.91673}
{"name": "三口洋市", "lng": 109.0, "lat": 0.9}
{"name": "马塔普拉", "lng": 114.849998, "lat": -3.41667}
{"name": "巴厘巴板", "lng": 116.828873, "lat": -1.26753}
{"name": "望加锡", "lng": 119.422096, "lat": -5.14}
{"name": "帕卢", "lng": 119.870697, "lat": -0.8917}
{"name": "哥伦打洛", "lng": 123.059502, "lat": 0.5412}
{"name": "万鸦老", "lng": 124.845497, "lat": 1.487}
{"name": "曼诺瓦里", "lng": 134.083328, "lat": -0.86667}
{"name": "安汶", "lng": 128.181396, "lat": -3.69543}
{"name": "古邦", "lng": 123.583328, "lat": -10.16667}
{"name": "丹帕沙", "lng": 115.216667, "lat": -8.65}
{"name": "泗水", "lng": 112.750832, "lat": -7.24917}
{"name": "三宝珑", "lng": 110.420303, "lat": -6.9932}
{"name": "日惹", "lng": 110.360832, "lat": -7.78278}
{"name": "怡保", "lng": 101.082901, "lat": 4.5841}
{"name": "关丹", "lng": 103.325996, "lat": 3.8077}
{"name": "新山", "lng": 103.757797, "lat": 1.4655}
{"name": "古晋", "lng": 110.333328, "lat": 1.55}
{"name": "诗巫", "lng": 111.816673, "lat": 2.3}
{"name": "民都鲁", "lng": 113.033333, "lat": 3.16667}
{"name": "亚庇", "lng": 116.072403, "lat": 5.9749}
{"name": "三打根", "lng": 118.117897, "lat": 5.8402}
{"name": "阿斯塔纳", "lng": 71.445976, "lat": 51.180099}
{"name": "卡拉干达", "lng": 54.866669, "lat": 50.066669}
{"name": "巴甫洛打尔", "lng": 76.949997, "lat": 52.299999}
{"name": "厄斯克门", "lng": 82.610283, "lat": 49.978889}
{"name": "塔拉兹", "lng": 71.366669, "lat": 42.900002}
{"name": "克孜勒奥尔达", "lng": 65.509171, "lat": 44.852779}
{"name": "阿克套", "lng": 51.200001, "lat": 43.650002}
{"name": "阿特劳", "lng": 51.883331, "lat": 47.116669}
{"name": "乌拉尔斯克", "lng": 51.366669, "lat": 51.233334}
{"name": "库斯塔奈", "lng": 63.583328, "lat": 53.166672}
{"name": "彼得罗巴甫尔", "lng": 69.162781, "lat": 54.875278}
{"name": "利雅得", "lng": 46.721851, "lat": 24.687731}
{"name": "塞卡凯", "lng": 40.206409, "lat": 29.96974}
{"name": "哈伊勒", "lng": 41.690731, "lat": 27.521879}
{"name": "布赖代", "lng": 43.974972, "lat": 26.325991}
{"name": "达曼", "lng": 50.10326, "lat": 26.43442}
{"name": "胡富夫", "lng": 49.565319, "lat": 25.364571}
{"name": "安卡拉", "lng": 32.854271, "lat": 39.919868}
{"name": "伊斯坦布尔", "lng": 28.949659, "lat": 41.01384}
{"name": "萨姆松", "lng": 36.330002, "lat": 41.286671}
{"name": "埃尔祖鲁姆", "lng": 41.276939, "lat": 39.908611}
{"name": "迪亚巴克尔", "lng": 40.218891, "lat": 37.915829}
{"name": "阿达纳", "lng": 35.328892, "lat": 37.001671}
{"name": "科尼亚", "lng": 32.484638, "lat": 37.871349}
{"name": "安塔利亚", "lng": 30.69556, "lat": 36.908119}
{"name": "伊兹密尔", "lng": 27.13838, "lat": 38.412731}
{"name": "德黑兰", "lng": 51.421509, "lat": 35.694389}
{"name": "马什哈德", "lng": 59.606201, "lat": 36.297001}
{"name": "克尔曼", "lng": 57.078789, "lat": 30.283211}
{"name": "阿巴斯港", "lng": 56.2808, "lat": 27.186501}
{"name": "设拉子", "lng": 52.538799, "lat": 29.6036}
{"name": "阿巴丹", "lng": 48.304298, "lat": 30.339199}
{"name": "大不里士", "lng": 46.291901, "lat": 38.080002}
{"name": "伊斯兰堡", "lng": 73.043289, "lat": 33.721481}
{"name": "卡拉奇", "lng": 67.082199, "lat": 24.9056}
{"name": "拉合尔", "lng": 74.343613, "lat": 31.549721}
{"name": "费萨拉巴德", "lng": 73.083328, "lat": 31.41667}
{"name": "木尔坦", "lng": 71.475281, "lat": 30.19556}
{"name": "奎达", "lng": 67.009712, "lat": 30.198999}
{"name": "白沙瓦", "lng": 71.578491, "lat": 34.007999}
{"name": "达卡", "lng": 90.40744, "lat": 23.7104}
{"name": "吉大港", "lng": 91.836388, "lat": 22.333059}
{"name": "库尔纳市", "lng": 89.56723, "lat": 22.81348}
{"name": "博格拉", "lng": 89.366669, "lat": 24.85}
{"name": "锡尔赫特市", "lng": 91.871674, "lat": 24.896669}
{"name": "内比都", "lng": 96.129723, "lat": 19.745001}
{"name": "仰光", "lng": 96.156113, "lat": 16.805281}
{"name": "勃生", "lng": 94.73333, "lat": 16.783331}
{"name": "曼德勒", "lng": 96.083588, "lat": 21.97473}
{"name": "密支那", "lng": 97.400002, "lat": 25.383329}
{"name": "腊戌", "lng": 97.75, "lat": 22.933331}
{"name": "勃固", "lng": 96.479721, "lat": 17.33667}
{"name": "曼谷", "lng": 100.51667, "lat": 13.75}
{"name": "呵叻", "lng": 102.101959, "lat": 14.97066}
{"name": "芭堤雅", "lng": 100.883331, "lat": 12.93333}
{"name": "普吉", "lng": 98.398102, "lat": 7.89059}
{"name": "宋卡", "lng": 100.5951, "lat": 7.19882}
{"name": "金边", "lng": 104.916008, "lat": 11.56245}
{"name": "西哈努克港", "lng": 103.529579, "lat": 10.60932}
{"name": "马德望", "lng": 103.198219, "lat": 13.10271}
{"name": "暹粒市", "lng": 103.849998, "lat": 13.36667}
{"name": "隆发", "lng": 106.981583, "lat": 13.48784}
{"name": "河内", "lng": 105.841171, "lat": 21.0245}
{"name": "海防", "lng": 106.68222, "lat": 20.85611}
{"name": "顺化", "lng": 107.599998, "lat": 16.466669}
{"name": "芽庄", "lng": 109.183327, "lat": 12.25}
{"name": "胡志明市", "lng": 106.666672, "lat": 10.75}
{"name": "马尼拉", "lng": 120.982201, "lat": 14.6042}
{"name": "宿务", "lng": 123.890709, "lat": 10.31672}
{"name": "达沃市", "lng": 125.612778, "lat": 7.07306}
{"name": "三宝颜", "lng": 122.073891, "lat": 6.91028}
{"name": "普林塞萨港", "lng": 118.735283, "lat": 9.73917}
{"name": "拉瓦格", "lng": 120.593613, "lat": 18.198891}
{"name": "首尔", "lng": 126.977829, "lat": 37.56826}
{"name": "大邱", "lng": 128.59111, "lat": 35.870281}
{"name": "釜山", "lng": 129.040283, "lat": 35.102779}
{"name": "济州", "lng": 126.521942, "lat": 33.50972}
{"name": "光州", "lng": 127.257217, "lat": 37.41}
{"name": "仁川", "lng": 126.731667, "lat": 37.453609}
{"name": "平壤", "lng": 125.754318, "lat": 39.033852}
{"name": "清津", "lng": 129.775833, "lat": 41.795559}
{"name": "元山", "lng": 127.443611, "lat": 39.152779}
{"name": "开城", "lng": 126.554443, "lat": 37.970829}
{"name": "额尔登特", "lng": 104.083328, "lat": 49.033329}
{"name": "达尔汗", "lng": 105.922783, "lat": 49.486671}
{"name": "迪拜", "lng": 55.304722, "lat": 25.258169}
{"name": "新加坡", "lng": 103.850067, "lat": 1.28967}
{"name": "马累", "lng": 73.508881, "lat": 4.1748}
{"name": "斯里巴加湾市", "lng": 114.948059, "lat": 4.94029}
{"name": "帝力", "lng": 125.573608, "lat": -8.55861}
{"name": "万象", "lng": 102.599998, "lat": 17.966669}
{"name": "沙湾拿吉", "lng": 104.750999, "lat": 16.565981}
{"name": "科伦坡", "lng": 79.847778, "lat": 6.93194}
{"name": "亭可马里", "lng": 81.233498, "lat": 8.5711}
{"name": "廷布", "lng": 89.641907, "lat": 27.466089}
{"name": "加德满都", "lng": 85.316666, "lat": 27.716667}
{"name": "博卡拉", "lng": 83.98333, "lat": 28.233334}
{"name": "喀布尔", "lng": 69.172333, "lat": 34.52813}
{"name": "坎大哈", "lng": 65.710129, "lat": 31.613319}
{"name": "马扎里沙里夫", "lng": 67.11087, "lat": 36.709042}
{"name": "杜尚别", "lng": 68.779053, "lat": 38.535751}
{"name": "奥什", "lng": 72.808258, "lat": 40.51506}
{"name": "塔什干", "lng": 69.21627, "lat": 41.264648}
{"name": "撒马尔罕", "lng": 66.959717, "lat": 39.654171}
{"name": "布哈拉", "lng": 64.428612, "lat": 39.774719}
{"name": "乌尔根奇", "lng": 60.633331, "lat": 41.549999}
{"name": "阿什哈巴德", "lng": 58.383331, "lat": 37.950001}
{"name": "马雷", "lng": 61.830311, "lat": 37.593781}
{"name": "土库曼纳巴德", "lng": 63.578621, "lat": 39.07328}
{"name": "巴库", "lng": 49.89201, "lat": 40.37767}
{"name": "埃里温", "lng": 44.513611, "lat": 40.18111}
{"name": "第比利斯", "lng": 44.833679, "lat": 41.694111}
{"name": "科威特城", "lng": 47.978329, "lat": 29.36972}
{"name": "巴士拉", "lng": 47.788849, "lat": 30.53488}
{"name": "摩苏尔", "lng": 43.118889, "lat": 36.334999}
{"name": "大马士革", "lng": 36.291279, "lat": 33.510201}
{"name": "阿勒颇", "lng": 37.161171, "lat": 36.201241}
{"name": "尼科西亚", "lng": 33.366669, "lat": 35.166672}
{"name": "贝鲁特", "lng": 35.494419, "lat": 33.888939}
{"name": "特拉维夫", "lng": 34.780571, "lat": 32.080879}
{"name": "安曼", "lng": 35.94503, "lat": 31.955219}
{"name": "佩特拉", "lng": 35.479328, "lat": 30.32221}
{"name": "麦纳麦", "lng": 50.583199, "lat": 26.215361}
{"name": "多哈", "lng": 51.533333, "lat": 25.286667}
{"name": "马斯喀特", "lng": 58.592201, "lat": 23.613871}
{"name": "塞拉莱", "lng": 54.092369, "lat": 17.015051}
{"name": "萨纳", "lng": 44.206669, "lat": 15.35472}
{"name": "穆卡拉", "lng": 49.124241, "lat": 14.54248}
{"name": "亚丁", "lng": 45.036671, "lat": 12.77944}
{"name": "莫斯科", "lng": 37.615555, "lat": 55.75222}
{"name": "圣彼得堡", "lng": 30.264168, "lat": 59.894444}
{"name": "彼得罗扎沃茨克", "lng": 34.346909, "lat": 61.784912}
{"name": "摩尔曼斯克", "lng": 33.09251, "lat": 68.979172}
{"name": "阿尔汉格尔斯克", "lng": 40.543301, "lat": 64.5401}
{"name": "沃洛格达", "lng": 39.888599, "lat": 59.2187}
{"name": "下诺夫哥罗德", "lng": 44.002048, "lat": 56.328674}
{"name": "喀山", "lng": 49.122139, "lat": 55.788738}
{"name": "瑟克特夫卡尔", "lng": 50.80994, "lat": 61.676418}
{"name": "沃尔库塔", "lng": 64.0, "lat": 67.5}
{"name": "彼尔姆", "lng": 56.285519, "lat": 58.01741}
{"name": "乌法", "lng": 56.037498, "lat": 54.775002}
{"name": "萨马拉", "lng": 50.150002, "lat": 53.200001}
{"name": "乌里扬诺夫斯克", "lng": 48.400002, "lat": 54.333332}
{"name": "萨拉托夫", "lng": 46.033333, "lat": 51.566666}
{"name": "伏尔加格勒", "lng": 44.501839, "lat": 48.719391}
{"name": "阿斯特拉罕", "lng": 48.04076, "lat": 46.349682}
{"name": "马哈奇卡拉", "lng": 47.502361, "lat": 42.976379}
{"name": "索契", "lng": 39.730278, "lat": 43.599998}
{"name": "克拉斯诺达尔", "lng": 38.976944, "lat": 45.03278}
{"name": "顿河畔罗斯托夫", "lng": 39.71389, "lat": 47.236389}
{"name": "斯摩棱斯克", "lng": 32.040001, "lat": 54.781666}
{"name": "加里宁格勒市", "lng": 20.51095, "lat": 54.70649}
{"name": "车里雅宾斯克", "lng": 61.429722, "lat": 55.154442}
{"name": "秋明", "lng": 65.527222, "lat": 57.152222}
{"name": "鄂木斯克", "lng": 73.400002, "lat": 55.0}
{"name": "下瓦尔托夫斯克", "lng": 76.553101, "lat": 60.934399}
{"name": "诺里尔斯克", "lng": 88.202698, "lat": 69.3535}
{"name": "新西伯利亚", "lng": 82.934441, "lat": 55.041111}
{"name": "巴尔瑙尔", "lng": 83.763611, "lat": 53.360561}
{"name": "托木斯克", "lng": 84.966667, "lat": 56.5}
{"name": "克麦罗沃", "lng": 86.083328, "lat": 55.333328}
{"name": "新库兹涅茨克", "lng": 87.109901, "lat": 53.755699}
{"name": "克拉斯诺亚尔斯克", "lng": 92.791672, "lat": 56.00972}
{"name": "伊尔库茨克", "lng": 104.296387, "lat": 52.297779}
{"name": "乌兰乌德", "lng": 107.609787, "lat": 51.82605}
{"name": "马加丹", "lng": 150.800003, "lat": 59.566669}
{"name": "阿纳德尔", "lng": 177.5103, "lat": 64.73424}
{"name": "彼得罗巴甫洛夫斯克", "lng": 158.6483, "lat": 53.0452}
{"name": "南萨哈林斯克", "lng": 142.733658, "lat": 46.958118}
{"name": "符拉迪沃斯托克", "lng": 131.873535, "lat": 43.105621}
{"name": "柏林", "lng": 13.41053, "lat": 52.524368}
{"name": "莱比锡", "lng": 12.37129, "lat": 51.339619}
{"name": "德累斯顿", "lng": 13.73832, "lat": 51.050892}
{"name": "纽伦堡", "lng": 11.06833, "lat": 49.447781}
{"name": "慕尼黑", "lng": 11.57549, "lat": 48.137428}
{"name": "斯图加特", "lng": 9.17702, "lat": 48.782318}
{"name": "法兰克福", "lng": 8.68333, "lat": 50.116669}
{"name": "波恩", "lng": 7.1, "lat": 50.73333}
{"name": "科隆", "lng": 6.95, "lat": 50.933331}
{"name": "杜塞尔多夫", "lng": 6.77616, "lat": 51.221722}
{"name": "杜伊斯堡", "lng": 6.75, "lat": 51.433331}
{"name": "多特蒙德", "lng": 7.45, "lat": 51.51667}
{"name": "汉诺威", "lng": 9.73322, "lat": 52.370522}
{"name": "不莱梅", "lng": 8.80777, "lat": 53.075161}
{"name": "汉堡", "lng": 10.0, "lat": 53.549999}
{"name": "伦敦", "lng": -0.09184, "lat": 51.512791}
{"name": "南安普敦", "lng": -1.40428, "lat": 50.90395}
{"name": "普利茅斯", "lng": -4.14305, "lat": 50.371529}
{"name": "加的夫", "lng": -3.18, "lat": 51.48}
{"name": "布里斯托尔", "lng": -2.59665, "lat": 51.455231}
{"name": "伯明翰", "lng": -1.89983, "lat": 52.481419}
{"name": "利物浦", "lng": -2.97794, "lat": 53.41058}
{"name": "贝尔法斯特", "lng": -5.93333, "lat": 54.583328}
{"name": "格拉斯哥", "lng": -4.25763, "lat": 55.86515}
{"name": "阿伯丁", "lng": -2.09814, "lat": 57.143688}
{"name": "爱丁堡", "lng": -3.19648, "lat": 55.952061}
{"name": "曼切斯特", "lng": -2.23743, "lat": 53.480949}
{"name": "利兹", "lng": -1.54785, "lat": 53.796478}
{"name": "诺丁汉", "lng": -1.15047, "lat": 52.953602}
{"name": "剑桥", "lng": 0.11667, "lat": 52.200001}
{"name": "牛津", "lng": -1.25596, "lat": 51.75222}
{"name": "巴黎", "lng": 2.3488, "lat": 48.853409}
{"name": "里昂", "lng": 4.84671, "lat": 45.748459}
{"name": "马赛", "lng": 5.38107, "lat": 43.296951}
{"name": "阿维尼翁", "lng": 4.80892, "lat": 43.948341}
{"name": "图卢兹", "lng": 1.44367, "lat": 43.604259}
{"name": "波尔多", "lng": -0.5805, "lat": 44.840439}
{"name": "里摩日", "lng": 1.2578, "lat": 45.831532}
{"name": "图尔", "lng": 0.68333, "lat": 47.383331}
{"name": "南特", "lng": -1.55336, "lat": 47.217251}
{"name": "布雷斯特", "lng": -4.48333, "lat": 48.400002}
{"name": "勒阿弗尔", "lng": 0.10767, "lat": 49.493801}
{"name": "里尔", "lng": 3.05858, "lat": 50.632969}
{"name": "梅斯", "lng": 6.17269, "lat": 49.11911}
{"name": "斯特拉斯堡", "lng": 7.74296, "lat": 48.58342}
{"name": "第戎", "lng": 5.01667, "lat": 47.316669}
{"name": "尼斯", "lng": 7.26608, "lat": 43.703129}
{"name": "戛纳", "lng": 7.01275, "lat": 43.55135}
{"name": "马德里", "lng": -3.70256, "lat": 40.4165}
{"name": "巴塞罗那", "lng": 2.15899, "lat": 41.38879}
{"name": "帕尔马", "lng": 2.65024, "lat": 39.569389}
{"name": "巴伦西亚", "lng": -0.37739, "lat": 39.469749}
{"name": "托雷维耶哈", "lng": -0.68222, "lat": 37.978722}
{"name": "穆尔西亚", "lng": -1.13004, "lat": 37.987041}
{"name": "塞维利亚", "lng": -5.97317, "lat": 37.38283}
{"name": "拉科鲁尼亚", "lng": -8.396, "lat": 43.371349}
{"name": "毕尔巴鄂", "lng": -2.92528, "lat": 43.262711}
{"name": "拉斯帕尔玛斯", "lng": -15.41343, "lat": 28.09973}
{"name": "罗马", "lng": 12.51133, "lat": 41.89193}
{"name": "比萨", "lng": 10.39659, "lat": 43.71553}
{"name": "都灵", "lng": 7.68682, "lat": 45.070492}
{"name": "米兰", "lng": 9.18951, "lat": 45.464272}
{"name": "威尼斯", "lng": 12.32667, "lat": 45.43861}
{"name": "佩斯卡拉", "lng": 14.21021, "lat": 42.460239}
{"name": "那不勒斯", "lng": 14.25, "lat": 40.833328}
{"name": "塔兰托", "lng": 17.229719, "lat": 40.476109}
{"name": "巴勒莫", "lng": 13.35976, "lat": 38.115822}
{"name": "卡利亚里", "lng": 9.13462, "lat": 39.207378}
{"name": "雅典", "lng": 23.716221, "lat": 37.97945}
{"name": "萨罗尼加", "lng": 22.94389, "lat": 40.640282}
{"name": "伊拉克利翁", "lng": 25.14341, "lat": 35.327869}
{"name": "康斯坦察", "lng": 28.65, "lat": 44.183331}
{"name": "克拉约瓦", "lng": 23.799999, "lat": 44.316669}
{"name": "克鲁日-纳波卡", "lng": 23.6, "lat": 46.76667}
{"name": "巴克乌", "lng": 26.9, "lat": 46.566669}
{"name": "基辅", "lng": 30.516666, "lat": 50.433334}
{"name": "哈尔科夫", "lng": 36.25, "lat": 50.0}
{"name": "第聂伯罗彼得罗夫斯克", "lng": 34.98333, "lat": 48.450001}
{"name": "塞瓦斯托波尔", "lng": 33.533333, "lat": 44.599998}
{"name": "尼古拉耶夫", "lng": 31.9974, "lat": 46.965912}
{"name": "敖德萨", "lng": 30.732622, "lat": 46.477474}
{"name": "利沃夫", "lng": 24.023239, "lat": 49.838261}
{"name": "明斯克", "lng": 27.566668, "lat": 53.900002}
{"name": "维捷布斯克", "lng": 30.2033, "lat": 55.190479}
{"name": "莫吉廖夫", "lng": 30.33639, "lat": 53.913891}
{"name": "戈梅利", "lng": 30.975401, "lat": 52.434502}
{"name": "格罗德诺", "lng": 23.8258, "lat": 53.6884}
{"name": "华沙", "lng": 21.01178, "lat": 52.229771}
{"name": "罗兹", "lng": 19.466669, "lat": 51.75}
{"name": "卡托维兹", "lng": 19.02754, "lat": 50.258419}
{"name": "波兹南", "lng": 16.92993, "lat": 52.406921}
{"name": "什切青", "lng": 14.55302, "lat": 53.42894}
{"name": "格但斯克", "lng": 18.64637, "lat": 54.352051}
{"name": "赫尔辛基", "lng": 24.93545, "lat": 60.169521}
{"name": "图尔库", "lng": 22.26869, "lat": 60.451481}
{"name": "玛丽港", "lng": 19.934811, "lat": 60.09726}
{"name": "坦佩雷", "lng": 23.787121, "lat": 61.499111}
{"name": "瓦萨", "lng": 21.61577, "lat": 63.096001}
{"name": "奥卢", "lng": 25.468161, "lat": 65.01236}
{"name": "索丹曲莱", "lng": 26.6, "lat": 67.416672}
{"name": "库奥皮奥", "lng": 27.677031, "lat": 62.89238}
{"name": "斯德哥尔摩", "lng": 18.064899, "lat": 59.332581}
{"name": "维斯比", "lng": 18.296021, "lat": 57.640888}
{"name": "马尔默", "lng": 13.00073, "lat": 55.605869}
{"name": "穆拉市", "lng": 14.54316, "lat": 61.007038}
{"name": "基律纳", "lng": 20.22513, "lat": 67.855721}
{"name": "吕勒奥市", "lng": 22.15465, "lat": 65.584152}
{"name": "松兹瓦尔", "lng": 17.306299, "lat": 62.391289}
{"name": "斯塔万格", "lng": 5.73332, "lat": 58.970051}
{"name": "卑尔根", "lng": 5.32415, "lat": 60.39299}
{"name": "特隆赫姆", "lng": 10.39506, "lat": 63.430489}
{"name": "摩城", "lng": 14.14278, "lat": 66.312782}
{"name": "特罗姆瑟", "lng": 18.95508, "lat": 69.648903}
{"name": "朗伊尔城", "lng": 15.64007, "lat": 78.218597}
{"name": "阿姆斯特丹", "lng": 4.88969, "lat": 52.37403}
{"name": "鹿特丹", "lng": 4.47917, "lat": 51.922501}
{"name": "乌特勒支", "lng": 5.12222, "lat": 52.090832}
{"name": "海牙", "lng": 4.29861, "lat": 52.076672}
{"name": "布鲁塞尔", "lng": 4.34878, "lat": 50.850449}
{"name": "伯尔尼", "lng": 7.44744, "lat": 46.94809}
{"name": "苏黎世", "lng": 8.55, "lat": 47.366669}
{"name": "日内瓦", "lng": 6.14569, "lat": 46.202221}
{"name": "洛桑", "lng": 6.63282, "lat": 46.515999}
{"name": "维也纳", "lng": 16.37208, "lat": 48.208488}
{"name": "格拉茨", "lng": 15.45, "lat": 47.066669}
{"name": "林茨", "lng": 14.28611, "lat": 48.306389}
{"name": "因斯布鲁克", "lng": 11.39454, "lat": 47.262661}
{"name": "塔林", "lng": 24.753531, "lat": 59.436958}
{"name": "里加", "lng": 24.1, "lat": 56.950001}
{"name": "维尔纽斯", "lng": 25.2798, "lat": 54.689159}
{"name": "布拉迪斯拉发", "lng": 17.106741, "lat": 48.148159}
{"name": "基希讷乌", "lng": 28.8575, "lat": 47.005562}
{"name": "索菲亚", "lng": 23.32415, "lat": 42.69751}
{"name": "瓦尔纳", "lng": 27.91667, "lat": 43.216671}
{"name": "斯科普里", "lng": 21.433331, "lat": 42.0}
{"name": "波德戈里察", "lng": 19.263611, "lat": 42.441109}
{"name": "贝尔格莱德", "lng": 20.46513, "lat": 44.804008}
{"name": "萨拉热窝", "lng": 18.35644, "lat": 43.84864}
{"name": "卢布尔雅那", "lng": 14.50513, "lat": 46.051079}
{"name": "布拉格", "lng": 14.42076, "lat": 50.088039}
{"name": "瓦莱塔", "lng": 14.51472, "lat": 35.899719}
{"name": "瓦杜兹", "lng": 9.52154, "lat": 47.14151}
{"name": "卢森堡", "lng": 6.13, "lat": 49.611671}
{"name": "哥本哈根", "lng": 12.56553, "lat": 55.675941}
{"name": "奥胡斯", "lng": 10.21076, "lat": 56.156738}
{"name": "托尔斯港", "lng": -6.77164, "lat": 62.009731}
{"name": "雷克雅未克", "lng": -21.895411, "lat": 64.135483}
{"name": "阿克雷里", "lng": -18.087799, "lat": 65.683533}
{"name": "都柏林", "lng": -6.26719, "lat": 53.34399}
{"name": "科克", "lng": -8.47061, "lat": 51.897968}
{"name": "里斯本", "lng": -9.13333, "lat": 38.716671}
{"name": "波尔图", "lng": -8.61099, "lat": 41.149609}
{"name": "马希库", "lng": -16.76667, "lat": 32.700001}
{"name": "安道尔", "lng": 1.52109, "lat": 42.50779}
{"name": "摩纳哥", "lng": 7.41667, "lat": 43.73333}
{"name": "圣马力诺", "lng": 12.45, "lat": 43.933331}
{"name": "梵蒂冈城", "lng": 12.45332, "lat": 41.902359}
{"name": "道格拉斯", "lng": -4.48333, "lat": 54.150002}
{"name": "渥太华", "lng": -75.69812, "lat": 45.411171}
{"name": "多伦多", "lng": -79.416298, "lat": 43.700111}
{"name": "温哥华", "lng": -123.119339, "lat": 49.24966}
{"name": "鲁伯特王子港", "lng": -130.320114, "lat": 54.316139}
{"name": "怀特霍斯", "lng": -135.053757, "lat": 60.71611}
{"name": "黄刀镇", "lng": -114.352547, "lat": 62.456001}
{"name": "卡尔加里", "lng": -114.085289, "lat": 51.05011}
{"name": "埃德蒙顿", "lng": -113.468712, "lat": 53.55014}
{"name": "萨斯卡通", "lng": -106.634521, "lat": 52.116791}
{"name": "温尼泊", "lng": -97.147041, "lat": 49.884399}
{"name": "桑德贝", "lng": -89.316833, "lat": 48.400101}
{"name": "哈密尔顿", "lng": -79.949638, "lat": 43.23341}
{"name": "蒙特利尔", "lng": -73.587807, "lat": 45.508839}
{"name": "魁北克市", "lng": -71.214539, "lat": 46.812279}
{"name": "七岛港", "lng": -66.38208, "lat": 50.200111}
{"name": "伊魁特", "lng": -68.514488, "lat": 63.750591}
{"name": "科纳布鲁克", "lng": -57.948399, "lat": 48.966709}
{"name": "圣约翰斯", "lng": -66.067657, "lat": 45.272709}
{"name": "哈利法克斯", "lng": -63.572392, "lat": 44.645329}
{"name": "夏洛特敦", "lng": -63.126709, "lat": 46.235249}
{"name": "克雷塔罗", "lng": -100.383331, "lat": 20.6}
{"name": "瓜达拉哈拉", "lng": -103.333328, "lat": 20.66667}
{"name": "马萨特兰", "lng": -106.416672, "lat": 23.216669}
{"name": "蒂华纳", "lng": -117.01667, "lat": 32.533329}
{"name": "埃莫西约", "lng": -110.966667, "lat": 29.066669}
{"name": "奇瓦瓦市", "lng": -106.083328, "lat": 28.633329}
{"name": "蒙特雷", "lng": -100.316673, "lat": 25.66667}
{"name": "坦皮科", "lng": -97.849998, "lat": 22.216669}
{"name": "普埃布拉", "lng": -115.353333, "lat": 32.564442}
{"name": "阿卡普尔科", "lng": -99.890099, "lat": 16.863359}
{"name": "图斯特拉-古铁雷斯", "lng": -93.116669, "lat": 16.75}
{"name": "梅里达", "lng": -89.616669, "lat": 20.966669}
{"name": "坎昆", "lng": -86.846558, "lat": 21.17429}
{"name": "贝尔莫潘", "lng": -88.76667, "lat": 17.25}
{"name": "伯利兹市", "lng": -88.197563, "lat": 17.499519}
{"name": "特古西加尔巴", "lng": -87.20681, "lat": 14.0818}
{"name": "圣佩德罗苏拉", "lng": -88.033333, "lat": 15.5}
{"name": "马那瓜", "lng": -86.250397, "lat": 12.13282}
{"name": "卡贝萨斯港", "lng": -83.388817, "lat": 14.03507}
{"name": "西西缪特", "lng": -53.6735, "lat": 66.939461}
{"name": "卡科尔托克", "lng": -46.033329, "lat": 60.716671}
{"name": "圣地亚哥", "lng": -75.821938, "lat": 20.024719}
{"name": "圣皮埃尔市", "lng": 57.520828, "lat": -20.217501}
{"name": "罗德城", "lng": -64.616669, "lat": 18.41667}
{"name": "巴西利亚", "lng": -47.929722, "lat": -15.77972}
{"name": "圣保罗", "lng": -46.636108, "lat": -23.547501}
{"name": "库里奇巴", "lng": -49.27306, "lat": -25.42778}
{"name": "阿雷格里港", "lng": -51.23, "lat": -30.03306}
{"name": "伊瓜苏", "lng": -54.588058, "lat": -25.547779}
{"name": "库亚巴", "lng": -56.096668, "lat": -15.59611}
{"name": "特费", "lng": -64.711388, "lat": -3.35417}
{"name": "马瑙斯", "lng": -60.025002, "lat": -3.10194}
{"name": "博阿维斯塔", "lng": -60.673328, "lat": 2.81972}
{"name": "因佩拉特里斯", "lng": -47.491669, "lat": -5.52639}
{"name": "圣路易斯", "lng": -44.30278, "lat": -2.52972}
{"name": "特雷西纳", "lng": -42.801941, "lat": -5.08917}
{"name": "福塔雷萨", "lng": -38.54306, "lat": -3.71722}
{"name": "累西腓", "lng": -34.881111, "lat": -8.05389}
{"name": "里约热内卢", "lng": -43.2075, "lat": -22.902781}
{"name": "贝洛奥里藏特", "lng": -43.937778, "lat": -19.92083}
{"name": "戈亚尼亚", "lng": -49.253891, "lat": -16.67861}
{"name": "门多萨", "lng": -68.827171, "lat": -32.890839}
{"name": "圣米格尔-德图库曼", "lng": -65.222603, "lat": -26.824141}
{"name": "萨尔塔", "lng": -65.411659, "lat": -24.7859}
{"name": "雷西斯滕西亚", "lng": -58.983891, "lat": -27.46056}
{"name": "马德普拉港", "lng": -57.557541, "lat": -38.002281}
{"name": "布兰卡港", "lng": -62.27243, "lat": -38.719601}
{"name": "内乌肯", "lng": -68.059097, "lat": -38.951611}
{"name": "里瓦达维亚准将城", "lng": -67.5, "lat": -45.866669}
{"name": "里奥加耶戈斯", "lng": -69.218132, "lat": -51.622608}
{"name": "乌斯怀亚", "lng": -68.300003, "lat": -54.799999}
{"name": "加拉加斯", "lng": -66.879189, "lat": 10.48801}
{"name": "圭亚那城", "lng": -62.652779, "lat": 8.353333}
{"name": "阿亚库乔港", "lng": -67.623611, "lat": 5.66389}
{"name": "马拉开波", "lng": -71.640556, "lat": 10.63167}
{"name": "巴基西梅托", "lng": -69.322777, "lat": 10.07389}
{"name": "卡利", "lng": -76.522499, "lat": 3.43722}
{"name": "蒙特里亚", "lng": -75.881432, "lat": 8.74798}
{"name": "巴兰基亚", "lng": -74.796387, "lat": 10.96389}
{"name": "布卡拉曼加", "lng": -73.119797, "lat": 7.12539}
{"name": "皮乌拉", "lng": -80.633331, "lat": -5.2}
{"name": "伊基托斯", "lng": -73.247223, "lat": -3.74806}
{"name": "普兰尔帕", "lng": -74.553871, "lat": -8.37915}
{"name": "阿雷基帕", "lng": -71.535004, "lat": -16.39889}
{"name": "科恰班巴", "lng": -66.156799, "lat": -17.3895}
{"name": "塔里哈", "lng": -64.729561, "lat": -21.53549}
{"name": "安多法加斯大", "lng": -70.400002, "lat": -23.65}
{"name": "伊基克", "lng": -70.143059, "lat": -20.220831}
{"name": "蒙特港", "lng": -72.94474, "lat": -41.469849}
{"name": "蓬塔阿雷纳斯", "lng": -70.916672, "lat": -53.150002}
{"name": "比勒陀利亚", "lng": 28.18783, "lat": -25.74486}
{"name": "约翰内斯堡", "lng": 28.043631, "lat": -26.202271}
{"name": "德班", "lng": 31.0292, "lat": -29.857901}
{"name": "博福特西", "lng": 22.582951, "lat": -32.356709}
{"name": "阿平顿", "lng": 21.256121, "lat": -28.44776}
{"name": "路克索", "lng": 32.642101, "lat": 25.698931}
{"name": "班加西", "lng": 20.066669, "lat": 32.116669}
{"name": "图卜鲁格", "lng": 23.976391, "lat": 32.083611}
{"name": "突尼斯", "lng": 10.16579, "lat": 36.81897}
{"name": "斯法克斯", "lng": 10.76028, "lat": 34.740559}
{"name": "阿尔及尔", "lng": 3.04197, "lat": 36.752499}
{"name": "图古尔特", "lng": 6.05796, "lat": 33.10527}
{"name": "塔曼拉塞特", "lng": 5.52278, "lat": 22.785}
{"name": "贝沙尔", "lng": -2.21667, "lat": 31.616671}
{"name": "拉格瓦特", "lng": 2.86514, "lat": 33.799999}
{"name": "阿加迪尔", "lng": -9.59815, "lat": 30.420179}
{"name": "丹吉尔", "lng": -5.81365, "lat": 35.780579}
{"name": "纳祖尔", "lng": -2.92866, "lat": 35.174042}
{"name": "努瓦克肖特", "lng": -15.9785, "lat": 18.08581}
{"name": "努瓦迪布", "lng": -17.034651, "lat": 20.930981}
{"name": "巴马科", "lng": -8.0, "lat": 12.65}
{"name": "塞古", "lng": -6.2157, "lat": 13.4317}
{"name": "莫普提", "lng": -4.1942, "lat": 14.49302}
{"name": "加奥", "lng": -0.04472, "lat": 16.271669}
{"name": "尼亚美", "lng": 2.1098, "lat": 13.51366}
{"name": "塔瓦", "lng": 5.2692, "lat": 14.8888}
{"name": "津德尔", "lng": 8.9881, "lat": 13.80716}
{"name": "阿布贾", "lng": 7.48976, "lat": 9.05735}
{"name": "伊巴丹", "lng": 3.89639, "lat": 7.38778}
{"name": "索科托", "lng": 5.23902, "lat": 13.06092}
{"name": "卡诺", "lng": 8.51672, "lat": 12.00012}
{"name": "迈杜古里", "lng": 13.16027, "lat": 11.84644}
{"name": "喀土穆", "lng": 32.53241, "lat": 15.55177}
{"name": "阿特巴拉", "lng": 33.986382, "lat": 17.702169}
{"name": "苏丹港", "lng": 37.216438, "lat": 19.617451}
{"name": "金沙萨", "lng": 15.32146, "lat": -4.32459}
{"name": "姆班达卡", "lng": 18.26034, "lat": 0.04865}
{"name": "基桑加尼", "lng": 25.200001, "lat": 0.51667}
{"name": "卢本巴希", "lng": 27.47938, "lat": -11.66089}
{"name": "科卢韦齐", "lng": 25.46674, "lat": -10.71484}
{"name": "姆布吉马伊", "lng": 23.6, "lat": -6.15}
{"name": "万博", "lng": 15.73917, "lat": -12.77611}
{"name": "卢班戈", "lng": 13.4925, "lat": -14.91717}
{"name": "本格拉", "lng": 13.40547, "lat": -12.57626}
{"name": "洛比托港", "lng": 13.54556, "lat": -12.34806}
{"name": "卢萨卡", "lng": 28.28713, "lat": -15.40669}
{"name": "利文斯通", "lng": 25.85425, "lat": -17.84194}
{"name": "基特韦", "lng": 28.247669, "lat": -12.79614}
{"name": "恩多拉", "lng": 28.636589, "lat": -12.95867}
{"name": "达累斯萨拉姆", "lng": 39.269508, "lat": -6.82349}
{"name": "姆特瓦拉", "lng": 40.183331, "lat": -10.26667}
{"name": "姆贝亚", "lng": 33.450001, "lat": -8.9}
{"name": "基戈马", "lng": 29.626671, "lat": -4.87694}
{"name": "多多马", "lng": 35.739471, "lat": -6.17221}
{"name": "坦噶", "lng": 39.099998, "lat": -5.06667}
{"name": "桑给巴尔岛", "lng": 39.197929, "lat": -6.16394}
{"name": "马普托", "lng": 32.589169, "lat": -25.965281}
{"name": "马希谢", "lng": 35.347221, "lat": -23.85972}
{"name": "贝拉", "lng": 34.83889, "lat": -19.843611}
{"name": "马哈赞加", "lng": 46.316669, "lat": -15.71667}
{"name": "安齐拉纳纳", "lng": 49.29171, "lat": -12.2787}
{"name": "图阿马西纳", "lng": 49.383331, "lat": -18.16667}
{"name": "法拉凡加纳", "lng": 47.833328, "lat": -22.816669}
{"name": "图莱亚尔", "lng": 43.666672, "lat": -23.35}
{"name": "路易港", "lng": 57.49889, "lat": -20.16194}
{"name": "堪培拉", "lng": 149.128067, "lat": -35.283459}
{"name": "米尔迪拉", "lng": 142.149994, "lat": -34.200001}
{"name": "奥古斯塔港", "lng": 137.766663, "lat": -32.5}
{"name": "林肯港", "lng": 135.866669, "lat": -34.73333}
{"name": "杰拉尔顿", "lng": 114.599998, "lat": -28.76667}
{"name": "黑德兰港", "lng": 118.566673, "lat": -20.316669}
{"name": "达尔文", "lng": 130.841843, "lat": -12.46113}
{"name": "爱丽斯泉", "lng": 133.883331, "lat": -23.700001}
{"name": "伊萨山市", "lng": 139.5, "lat": -20.73333}
{"name": "汤斯维尔", "lng": 146.800003, "lat": -19.25}
{"name": "罗克汉普顿", "lng": 150.5, "lat": -23.383329}
{"name": "黄金海岸", "lng": 153.433334, "lat": -28.0}
{"name": "因弗卡吉尔", "lng": 168.350006, "lat": -46.400002}
{"name": "奥克兰", "lng": 174.766663, "lat": -36.866669}
{"name": "内皮尔", "lng": 176.916672, "lat": -39.48333}
{"name": "莱城", "lng": 146.984695, "lat": -6.72208}
{"name": "金贝", "lng": 150.142853, "lat": -5.55021}
{"name": "阿拉瓦", "lng": 155.536743, "lat": -6.21319}
{"name": "塞班", "lng": 145.754501, "lat": 15.21233}
{"name": "阿加尼亚", "lng": 144.747955, "lat": 13.46559}
{"name": "亚伦", "lng": 166.9252, "lat": -0.55085}
{"name": "帕果帕果", "lng": -170.702499, "lat": -14.27806}
{"name": "华盛顿", "lng": -77.036369, "lat": 38.895111}
{"name": "纽约", "lng": -74.005966, "lat": 40.714272}
{"name": "费城", "lng": -75.163788, "lat": 39.952339}
{"name": "巴尔的摩", "lng": -76.61219, "lat": 39.290379}
{"name": "罗福", "lng": -76.285217, "lat": 36.846809}
{"name": "哥伦布", "lng": -82.998787, "lat": 39.961182}
{"name": "辛辛那提", "lng": -84.456886, "lat": 39.161999}
{"name": "印第安纳波利斯", "lng": -86.158043, "lat": 39.768379}
{"name": "圣路易斯", "lng": -90.197891, "lat": 38.62727}
{"name": "得梅因", "lng": -93.609108, "lat": 41.60054}
{"name": "明尼阿波利斯", "lng": -93.26384, "lat": 44.979969}
{"name": "密尔沃基", "lng": -87.906471, "lat": 43.038898}
{"name": "芝加哥", "lng": -87.650047, "lat": 41.850029}
{"name": "底特律", "lng": -83.045753, "lat": 42.331429}
{"name": "克里夫兰", "lng": -81.695412, "lat": 41.4995}
{"name": "匹兹堡", "lng": -79.995888, "lat": 40.44062}
{"name": "尼亚加拉瀑布城", "lng": -79.056709, "lat": 43.094501}
{"name": "奥尔巴尼", "lng": -73.756233, "lat": 42.65258}
{"name": "波士顿", "lng": -71.059769, "lat": 42.358429}
{"name": "亚特兰大", "lng": -84.387978, "lat": 33.749001}
{"name": "夏洛特", "lng": -80.843132, "lat": 35.227089}
{"name": "杰克逊维尔", "lng": -81.655647, "lat": 30.33218}
{"name": "迈阿密", "lng": -80.193657, "lat": 25.774269}
{"name": "坦帕", "lng": -82.458427, "lat": 27.947519}
{"name": "蒙哥马利", "lng": -86.299973, "lat": 32.36681}
{"name": "伯明翰", "lng": -86.80249, "lat": 33.52066}
{"name": "新奥尔良", "lng": -90.075073, "lat": 29.954651}
{"name": "小石城", "lng": -92.289589, "lat": 34.746479}
{"name": "孟菲斯", "lng": -90.048981, "lat": 35.149529}
{"name": "纳什维尔", "lng": -86.784439, "lat": 36.16589}
{"name": "旧金山", "lng": -122.419418, "lat": 37.774929}
{"name": "洛杉矶", "lng": -118.243683, "lat": 34.052231}
{"name": "圣地亚哥", "lng": -117.157257, "lat": 32.715328}
{"name": "萨克拉门托", "lng": -121.4944, "lat": 38.58157}
{"name": "圣何塞", "lng": -121.894958, "lat": 37.33939}
{"name": "山景城", "lng": -122.083847, "lat": 37.386051}
{"name": "伯克利", "lng": -122.272751, "lat": 37.87159}
{"name": "波特兰", "lng": -122.676208, "lat": 45.523449}
{"name": "西雅图", "lng": -122.332069, "lat": 47.606209}
{"name": "斯波坎", "lng": -117.429077, "lat": 47.65966}
{"name": "博伊西", "lng": -116.203453, "lat": 43.613499}
{"name": "大瀑布城", "lng": -111.300812, "lat": 47.50024}
{"name": "俾斯麦", "lng": -100.783737, "lat": 46.808331}
{"name": "堪萨斯城", "lng": -94.578568, "lat": 39.099731}
{"name": "俄克拉荷马城", "lng": -97.516434, "lat": 35.46756}
{"name": "达拉斯", "lng": -96.806671, "lat": 32.783058}
{"name": "休斯敦", "lng": -95.363274, "lat": 29.763281}
{"name": "圣安东尼奥", "lng": -98.493629, "lat": 29.42412}
{"name": "奥斯丁", "lng": -97.743057, "lat": 30.267151}
{"name": "凤凰城", "lng": -112.074043, "lat": 33.44838}
{"name": "拉斯维加斯", "lng": -115.137222, "lat": 36.174969}
{"name": "盐湖城", "lng": -111.891052, "lat": 40.76078}
{"name": "丹佛", "lng": -104.984703, "lat": 39.739151}
{"name": "阿尔伯克基", "lng": -106.651138, "lat": 35.084492}
{"name": "安克雷奇", "lng": -149.900284, "lat": 61.21806}
{"name": "费尔班克斯", "lng": -147.716385, "lat": 64.837784}
{"name": "朱诺", "lng": -134.419724, "lat": 58.301941}
{"name": "乌纳拉斯卡", "lng": -166.536667, "lat": 53.873611}
{"name": "诺姆", "lng": -165.406387, "lat": 64.501106}
{"name": "火奴鲁鲁", "lng": -157.858337, "lat": 21.30694}
{"name": "威克", "lng": -3.08333, "lat": 58.433331}
{"name": "亚琛", "lng": 6.08342, "lat": 50.776642}
{"name": "伊策霍", "lng": 9.51529, "lat": 53.92099}
{"name": "耶弗尔", "lng": 7.9, "lat": 53.583328}
{"name": "诺伊鲁平", "lng": 12.80311, "lat": 52.92815}
{"name": "汉斯特霍尔姆", "lng": 8.61667, "lat": 57.116669}
{"name": "斯卡恩", "lng": 10.58394, "lat": 57.720928}
{"name": "基督城", "lng": 172.633331, "lat": -43.533329}
{"name": "凯库拉", "lng": 173.68132, "lat": -42.40749}
{"name": "凯里凯里", "lng": 173.947388, "lat": -35.226761}
{"name": "沃克沃斯", "lng": 174.666672, "lat": -36.400002}
{"name": "惠灵顿", "lng": 174.775574, "lat": -41.28664}
{"name": "阿姆施泰滕", "lng": 14.87206, "lat": 48.122898}
{"name": "巴登", "lng": 16.232639, "lat": 48.005428}
{"name": "比绍夫斯霍芬", "lng": 13.21667, "lat": 47.416672}
{"name": "布雷根茨", "lng": 9.7471, "lat": 47.503109}
{"name": "德意志兰茨贝格", "lng": 15.22222, "lat": 46.815281}
{"name": "多恩比恩", "lng": 9.73306, "lat": 47.416672}
{"name": "艾森斯塔特", "lng": 16.52327, "lat": 47.84565}
{"name": "费尔德巴赫", "lng": 15.88833, "lat": 46.95306}
{"name": "费尔德基希", "lng": 9.6, "lat": 47.233059}
{"name": "弗赖施塔特", "lng": 14.50453, "lat": 48.511028}
{"name": "弗里萨赫", "lng": 14.40583, "lat": 46.95528}
{"name": "格蒙登", "lng": 13.79754, "lat": 47.918869}
{"name": "延巴赫", "lng": 11.77245, "lat": 47.391731}
{"name": "卡芬堡", "lng": 15.29331, "lat": 47.44458}
{"name": "库夫施泰因", "lng": 12.16667, "lat": 47.583328}
{"name": "兰德克", "lng": 10.56593, "lat": 47.139881}
{"name": "朗根洛伊斯", "lng": 15.66667, "lat": 48.466671}
{"name": "莱布尼兹", "lng": 15.53836, "lat": 46.781609}
{"name": "利恩茨", "lng": 12.76903, "lat": 46.828899}
{"name": "米斯特尔巴赫", "lng": 16.57667, "lat": 48.57}
{"name": "月亮湖", "lng": 13.34908, "lat": 47.85648}
{"name": "波伊斯多夫", "lng": 16.633329, "lat": 48.666672}
{"name": "拉德施塔特", "lng": 13.45, "lat": 47.383331}
{"name": "雷茨", "lng": 15.95, "lat": 48.75}
{"name": "罗伊特", "lng": 10.71667, "lat": 47.48333}
{"name": "萨尔茨堡", "lng": 13.04399, "lat": 47.799412}
{"name": "施托克劳", "lng": 16.216669, "lat": 48.383331}
{"name": "菲拉赫", "lng": 13.85583, "lat": 46.610279}
{"name": "魏茨", "lng": 15.61667, "lat": 47.216671}
{"name": "博弗尚", "lng": 4.7718, "lat": 50.781952}
{"name": "布拉斯哈特", "lng": 4.49182, "lat": 51.291199}
{"name": "谢夫儿", "lng": 3.80711, "lat": 50.587872}
{"name": "迪彭贝克", "lng": 5.41875, "lat": 50.907688}
{"name": "夫洛雷恩", "lng": 4.60636, "lat": 50.25127}
{"name": "亨克", "lng": 5.50082, "lat": 50.965}
{"name": "科克赛德", "lng": 2.63772, "lat": 51.116421}
{"name": "梅勒", "lng": 3.80526, "lat": 51.002319}
{"name": "奥斯坦德", "lng": 2.91185, "lat": 51.223389}
{"name": "热帖", "lng": 5.08242, "lat": 51.266521}
{"name": "泽布吕赫", "lng": 3.18188, "lat": 51.329021}
{"name": "布尔加斯", "lng": 27.46781, "lat": 42.506062}
{"name": "德拉格曼", "lng": 22.931669, "lat": 42.918892}
{"name": "蒙大拿", "lng": 23.225, "lat": 43.412498}
{"name": "普列文", "lng": 24.616671, "lat": 43.416672}
{"name": "普罗夫迪夫", "lng": 24.75, "lat": 42.150002}
{"name": "拉兹格勒", "lng": 26.51667, "lat": 43.533329}
{"name": "桑丹斯基", "lng": 23.283331, "lat": 41.566669}
{"name": "沙布拉", "lng": 28.533331, "lat": 43.533329}
{"name": "锡利斯特拉", "lng": 27.26667, "lat": 44.116669}
{"name": "斯利文", "lng": 26.32917, "lat": 42.685829}
{"name": "斯维伦格勒", "lng": 26.200001, "lat": 41.76667}
{"name": "维丁", "lng": 22.872499, "lat": 43.990002}
{"name": "别洛瓦尔", "lng": 16.84889, "lat": 45.898609}
{"name": "达鲁瓦尔", "lng": 17.225, "lat": 45.590561}
{"name": "戈斯皮奇", "lng": 15.37472, "lat": 44.546108}
{"name": "格拉迪什泰", "lng": 18.706671, "lat": 45.14806}
{"name": "赫瓦尔", "lng": 16.44278, "lat": 43.172501}
{"name": "克宁", "lng": 16.200001, "lat": 44.043892}
{"name": "克拉皮纳", "lng": 15.87889, "lat": 46.160831}
{"name": "克里热夫齐", "lng": 16.5425, "lat": 46.021938}
{"name": "马卡尔斯卡", "lng": 17.01778, "lat": 43.29694}
{"name": "帕任", "lng": 13.93667, "lat": 45.24028}
{"name": "塞尼", "lng": 14.90583, "lat": 44.989441}
{"name": "希贝尼克", "lng": 15.90583, "lat": 43.727219}
{"name": "锡萨克", "lng": 16.37833, "lat": 45.46611}
{"name": "瓦拉日丁", "lng": 16.33778, "lat": 46.30444}
{"name": "恰斯拉夫", "lng": 15.38972, "lat": 49.910992}
{"name": "海布", "lng": 12.37392, "lat": 50.079632}
{"name": "霍莱绍夫", "lng": 17.57832, "lat": 49.333309}
{"name": "利贝雷茨", "lng": 15.05619, "lat": 50.767109}
{"name": "帕尔杜比采", "lng": 15.77659, "lat": 50.040749}
{"name": "普热罗夫", "lng": 17.450899, "lat": 49.455109}
{"name": "普日比斯拉夫", "lng": 15.73855, "lat": 49.576839}
{"name": "艾赫泰里", "lng": 24.061859, "lat": 62.554031}
{"name": "伊瓦洛", "lng": 27.53891, "lat": 68.659859}
{"name": "约恩苏", "lng": 29.763161, "lat": 62.601181}
{"name": "约基奥伊宁", "lng": 23.48004, "lat": 60.80162}
{"name": "卡亚尼", "lng": 27.72846, "lat": 64.22728}
{"name": "考哈瓦", "lng": 23.08333, "lat": 63.099998}
{"name": "拉提", "lng": 25.66151, "lat": 60.98267}
{"name": "拉彭兰塔", "lng": 28.188709, "lat": 61.058708}
{"name": "穆奥尼奥", "lng": 23.700001, "lat": 67.949997}
{"name": "佩洛", "lng": 23.91667, "lat": 66.783333}
{"name": "波里", "lng": 21.783331, "lat": 61.48333}
{"name": "罗瓦涅米", "lng": 25.716669, "lat": 66.5}
{"name": "萨翁林纳", "lng": 28.87999, "lat": 61.8699}
{"name": "维塔萨里", "lng": 25.866671, "lat": 63.066669}
{"name": "阿布维尔", "lng": 1.83333, "lat": 50.099998}
{"name": "阿根", "lng": 0.63333, "lat": 44.200001}
{"name": "阿雅克肖", "lng": 8.73462, "lat": 41.927231}
{"name": "阿尔比", "lng": 2.148, "lat": 43.929798}
{"name": "阿朗松", "lng": 0.08333, "lat": 48.433331}
{"name": "奥赫", "lng": 0.58333, "lat": 43.650002}
{"name": "欧里亚克", "lng": 2.45, "lat": 44.916672}
{"name": "欧塞尔", "lng": 3.56667, "lat": 47.799999}
{"name": "阿沃尔", "lng": 2.65295, "lat": 47.035141}
{"name": "巴斯蒂亚", "lng": 9.45, "lat": 42.702782}
{"name": "贝尔热拉克", "lng": 0.48333, "lat": 44.849998}
{"name": "贝桑松", "lng": 6.01815, "lat": 47.248779}
{"name": "贝济耶", "lng": 3.21899, "lat": 43.347618}
{"name": "布卢瓦", "lng": 1.33333, "lat": 47.583328}
{"name": "布尔", "lng": 2.4, "lat": 47.083328}
{"name": "卡昂", "lng": -0.35912, "lat": 49.185848}
{"name": "卡尔维", "lng": 8.75713, "lat": 42.56604}
{"name": "卡尔卡松", "lng": 2.35, "lat": 43.216671}
{"name": "卡庞特拉", "lng": 5.05, "lat": 44.049999}
{"name": "沙特尔", "lng": 1.48925, "lat": 48.44685}
{"name": "沙托丹", "lng": 1.33333, "lat": 48.083328}
{"name": "克里尔", "lng": 2.48477, "lat": 49.256721}
{"name": "达克斯", "lng": -1.05366, "lat": 43.71032}
{"name": "迪耶普", "lng": 1.08333, "lat": 49.933331}
{"name": "迪纳尔", "lng": -2.06144, "lat": 48.631432}
{"name": "敦刻尔克", "lng": 2.36667, "lat": 51.049999}
{"name": "恩伯润", "lng": 6.49526, "lat": 44.563869}
{"name": "古尔东", "lng": 1.38333, "lat": 44.73333}
{"name": "海耶尔", "lng": 6.13897, "lat": 43.119541}
{"name": "伊斯特尔", "lng": 4.98333, "lat": 43.51667}
{"name": "朗格勒", "lng": 5.33333, "lat": 47.866669}
{"name": "兰里安", "lng": -3.46667, "lat": 48.73333}
{"name": "勒卡特", "lng": 3.02944, "lat": 42.910561}
{"name": "梅肯", "lng": 4.83333, "lat": 46.299999}
{"name": "马里尼亚讷", "lng": 5.21453, "lat": 43.416039}
{"name": "默伦", "lng": 2.66667, "lat": 48.533329}
{"name": "闷得", "lng": 3.5, "lat": 44.51667}
{"name": "米洛", "lng": 3.08333, "lat": 44.099998}
{"name": "蒙托邦", "lng": 1.35, "lat": 44.01667}
{"name": "蒙特利马尔", "lng": 4.75094, "lat": 44.55838}
{"name": "蒙彼利埃", "lng": 3.87723, "lat": 43.61092}
{"name": "米卢斯", "lng": 7.33333, "lat": 47.75}
{"name": "南希", "lng": 6.2, "lat": 48.683331}
{"name": "尼奥尔", "lng": -0.45877, "lat": 46.323132}
{"name": "奥尔良", "lng": 1.90389, "lat": 47.902889}
{"name": "佩皮尼昂", "lng": 2.89541, "lat": 42.697639}
{"name": "普瓦捷", "lng": 0.33333, "lat": 46.583328}
{"name": "坎佩尔", "lng": -4.1, "lat": 48.0}
{"name": "兰斯", "lng": 4.03333, "lat": 49.25}
{"name": "雷恩", "lng": -1.67429, "lat": 48.11198}
{"name": "鲁昂", "lng": 1.09932, "lat": 49.44313}
{"name": "塞特", "lng": 3.6966, "lat": 43.40176}
{"name": "塔布", "lng": 0.08333, "lat": 43.23333}
{"name": "特拉普", "lng": 2.01781, "lat": 48.774132}
{"name": "特鲁瓦", "lng": 4.08333, "lat": 48.299999}
{"name": "阿哈尔齐赫", "lng": 42.98262, "lat": 41.639011}
{"name": "巴统", "lng": 41.635929, "lat": 41.64159}
{"name": "博尔尼西", "lng": 44.53838, "lat": 41.447941}
{"name": "哥里", "lng": 44.11578, "lat": 41.984219}
{"name": "库塔伊西", "lng": 42.699741, "lat": 42.249611}
{"name": "波蒂", "lng": 41.67197, "lat": 42.14616}
{"name": "泰拉维", "lng": 45.473148, "lat": 41.919781}
{"name": "祖格迪迪", "lng": 41.87088, "lat": 42.508801}
{"name": "阿尔塔", "lng": 20.985279, "lat": 39.160561}
{"name": "弗洛里纳", "lng": 21.409809, "lat": 40.781971}
{"name": "拉米亚", "lng": 22.433331, "lat": 38.900002}
{"name": "纳克索斯", "lng": 25.37639, "lat": 37.10556}
{"name": "比雷埃夫斯", "lng": 23.637079, "lat": 37.947449}
{"name": "特里卡拉", "lng": 21.7675, "lat": 39.555279}
{"name": "巴哈", "lng": 18.95639, "lat": 46.174961}
{"name": "贝凯什乔包", "lng": 21.1, "lat": 46.683331}
{"name": "德布勒森", "lng": 21.633329, "lat": 47.533329}
{"name": "埃格尔", "lng": 20.373289, "lat": 47.902649}
{"name": "杰尔", "lng": 17.63512, "lat": 47.683331}
{"name": "凯奇凯梅特", "lng": 19.69128, "lat": 46.906181}
{"name": "米什科尔茨", "lng": 20.783331, "lat": 48.099998}
{"name": "莫雄马扎尔古堡", "lng": 17.269939, "lat": 47.867882}
{"name": "瑙吉考尼饶", "lng": 16.991039, "lat": 46.453468}
{"name": "保克什", "lng": 18.859619, "lat": 46.62648}
{"name": "帕帕", "lng": 17.4674, "lat": 47.33004}
{"name": "波罗兹洛", "lng": 20.66667, "lat": 47.650002}
{"name": "希欧福克", "lng": 18.058001, "lat": 46.904121}
{"name": "索普朗", "lng": 16.59049, "lat": 47.685009}
{"name": "塞切尼", "lng": 19.520189, "lat": 48.08057}
{"name": "塞格德", "lng": 20.148239, "lat": 46.252998}
{"name": "索尔诺克", "lng": 20.200001, "lat": 47.183331}
{"name": "松博特海伊", "lng": 16.62155, "lat": 47.230881}
{"name": "陶萨尔", "lng": 17.905939, "lat": 46.374668}
{"name": "塔塔", "lng": 18.31838, "lat": 47.652889}
{"name": "札亨尼", "lng": 22.17614, "lat": 48.409061}
{"name": "埃伊尔斯塔济", "lng": -14.39484, "lat": 65.265327}
{"name": "格林达维克", "lng": -22.43375, "lat": 63.8424}
{"name": "韦斯特曼纳", "lng": -20.27339, "lat": 63.44273}
{"name": "克莱尔莫里斯", "lng": -9.0, "lat": 53.716671}
{"name": "阿尔伯格", "lng": 8.21829, "lat": 44.049969}
{"name": "阿尔盖罗", "lng": 8.31806, "lat": 40.558891}
{"name": "安科纳", "lng": 13.51008, "lat": 43.59816}
{"name": "阿雷佐", "lng": 11.87691, "lat": 43.461391}
{"name": "阿维亚诺", "lng": 12.59472, "lat": 46.07056}
{"name": "巴里", "lng": 16.851179, "lat": 41.117729}
{"name": "博洛尼亚", "lng": 11.33875, "lat": 44.493809}
{"name": "博尔扎诺", "lng": 11.33358, "lat": 46.492722}
{"name": "博尼法蒂", "lng": 15.90028, "lat": 39.5853}
{"name": "布林迪西", "lng": 17.936819, "lat": 40.627731}
{"name": "坎波巴索", "lng": 14.66753, "lat": 41.560032}
{"name": "卡普里", "lng": 14.24263, "lat": 40.550732}
{"name": "卡洛福泰", "lng": 8.30583, "lat": 39.145}
{"name": "卡塞塔", "lng": 14.33493, "lat": 41.083221}
{"name": "卡坦扎罗", "lng": 16.5987, "lat": 38.890789}
{"name": "切尔维亚", "lng": 12.34812, "lat": 44.262039}
{"name": "基亚瓦里", "lng": 9.32241, "lat": 44.317711}
{"name": "奇维塔韦基亚", "lng": 11.79674, "lat": 42.09325}
{"name": "克罗托内", "lng": 17.117809, "lat": 39.085098}
{"name": "德奇莫曼努", "lng": 8.96944, "lat": 39.3125}
{"name": "多比亚科", "lng": 12.23139, "lat": 46.7425}
{"name": "恩纳", "lng": 14.28917, "lat": 37.558849}
{"name": "费拉拉", "lng": 11.62071, "lat": 44.826778}
{"name": "弗利", "lng": 12.05278, "lat": 44.22361}
{"name": "弗罗西诺内", "lng": 13.3401, "lat": 41.640018}
{"name": "加拉拉泰", "lng": 8.79164, "lat": 45.660191}
{"name": "杰拉", "lng": 14.23068, "lat": 37.080341}
{"name": "格拉扎尼塞", "lng": 14.10032, "lat": 41.089409}
{"name": "格罗塞托", "lng": 11.10794, "lat": 42.77142}
{"name": "格罗塔列", "lng": 17.433701, "lat": 40.53923}
{"name": "圭多尼亚", "lng": 12.75, "lat": 42.01667}
{"name": "拉丁", "lng": 12.9043, "lat": 41.466141}
{"name": "莱切", "lng": 18.17202, "lat": 40.357029}
{"name": "洛雷托", "lng": 13.60978, "lat": 43.43536}
{"name": "马泰拉", "lng": 16.60158, "lat": 40.668522}
{"name": "墨西拿", "lng": 15.54969, "lat": 38.193272}
{"name": "摩德纳", "lng": 10.92539, "lat": 44.647831}
{"name": "蒙多维", "lng": 7.81764, "lat": 44.39603}
{"name": "奥特朗托", "lng": 18.485929, "lat": 40.14782}
{"name": "潘泰莱里亚", "lng": 11.95, "lat": 36.833328}
{"name": "帕尔马", "lng": 10.32898, "lat": 44.802662}
{"name": "蓬扎", "lng": 12.9625, "lat": 40.893799}
{"name": "普里齐", "lng": 13.43275, "lat": 37.721439}
{"name": "列蒂", "lng": 12.85918, "lat": 42.40723}
{"name": "里米尼", "lng": 12.58083, "lat": 44.063332}
{"name": "罗洛", "lng": 10.8602, "lat": 44.88567}
{"name": "萨尔扎纳", "lng": 9.95859, "lat": 44.11145}
{"name": "夏卡", "lng": 13.08399, "lat": 37.506931}
{"name": "塔尔维西奥", "lng": 13.59417, "lat": 46.51083}
{"name": "泰尔莫利", "lng": 14.98953, "lat": 41.988838}
{"name": "特乌拉达", "lng": 8.77224, "lat": 38.96743}
{"name": "特伦托", "lng": 11.12108, "lat": 46.067871}
{"name": "的里雅斯特", "lng": 13.78, "lat": 45.648609}
{"name": "维斯特", "lng": 16.174959, "lat": 41.88245}
{"name": "维皮泰诺", "lng": 11.43007, "lat": 46.892529}
{"name": "维泰博", "lng": 12.10856, "lat": 42.417831}
{"name": "沃兰诺", "lng": 11.06238, "lat": 45.917999}
{"name": "沃尔泰拉", "lng": 10.86002, "lat": 43.400341}
{"name": "吕伐登", "lng": 5.80859, "lat": 53.201389}
{"name": "沃尔克", "lng": 5.65417, "lat": 51.642502}
{"name": "艾于什库格", "lng": 11.43333, "lat": 59.916672}
{"name": "哈马尔", "lng": 11.06798, "lat": 60.794498}
{"name": "哈尔斯塔", "lng": 16.541651, "lat": 68.798332}
{"name": "侯尼霍斯", "lng": 10.25647, "lat": 60.168041}
{"name": "卡拉绍克", "lng": 25.511221, "lat": 69.47187}
{"name": "希尔科内斯", "lng": 30.04578, "lat": 69.727058}
{"name": "利勒哈默尔", "lng": 10.46628, "lat": 61.115139}
{"name": "瑞纳", "lng": 11.36409, "lat": 61.134838}
{"name": "赛于达", "lng": 6.35415, "lat": 59.650589}
{"name": "索特兰德", "lng": 15.41618, "lat": 68.694939}
{"name": "斯特林", "lng": 6.72264, "lat": 61.90448}
{"name": "廷瑟", "lng": 10.78241, "lat": 62.27594}
{"name": "瓦尔德", "lng": 31.110661, "lat": 70.370483}
{"name": "别洛戈尔斯克", "lng": 128.461105, "lat": 50.915829}
{"name": "基洛夫", "lng": 49.660069, "lat": 58.596649}
{"name": "斯特列尔卡", "lng": 37.286499, "lat": 45.206329}
{"name": "艾德勒", "lng": 39.919998, "lat": 43.43}
{"name": "阿尔丹", "lng": 125.389442, "lat": 58.603062}
{"name": "亚历山德罗夫", "lng": 38.709999, "lat": 56.400002}
{"name": "亚历山大罗夫斯克", "lng": 57.562408, "lat": 59.158039}
{"name": "俄罗斯", "lng": 37.323898, "lat": 44.890839}
{"name": "安加尔斯克", "lng": 103.886391, "lat": 52.536671}
{"name": "安娜", "lng": 40.429901, "lat": 51.4842}
{"name": "阿帕季特", "lng": 33.403099, "lat": 67.56414}
{"name": "阿尔马维尔", "lng": 41.123402, "lat": 44.989201}
{"name": "这区", "lng": 43.83992, "lat": 55.394852}
{"name": "卡尔斯克", "lng": 45.007751, "lat": 51.871849}
{"name": "亚速海", "lng": 39.416481, "lat": 47.107792}
{"name": "巴拉瑟夫", "lng": 43.166698, "lat": 51.550201}
{"name": "拉宾斯克", "lng": 78.356972, "lat": 55.35709}
{"name": "别尔哥罗德", "lng": 36.580002, "lat": 50.610001}
{"name": "别洛沃", "lng": 86.2976, "lat": 54.4165}
{"name": "别洛焦尔斯克", "lng": 37.795719, "lat": 60.032631}
{"name": "比金", "lng": 134.259995, "lat": 46.816109}
{"name": "比罗比詹", "lng": 132.949997, "lat": 48.799999}
{"name": "比尔斯克", "lng": 55.542782, "lat": 55.421108}
{"name": "博戈托尔", "lng": 89.534172, "lat": 56.207779}
{"name": "鲍里索格列布斯克", "lng": 42.084942, "lat": 51.36713}
{"name": "博尔贾", "lng": 116.51667, "lat": 50.383331}
{"name": "布拉茨克", "lng": 101.614166, "lat": 56.1325}
{"name": "布列德", "lng": 60.34111, "lat": 52.415279}
{"name": "布琼诺夫斯克", "lng": 44.165829, "lat": 44.78389}
{"name": "布古鲁斯兰", "lng": 52.442001, "lat": 53.655399}
{"name": "这里", "lng": 52.2635, "lat": 52.780701}
{"name": "钱尼", "lng": 76.764679, "lat": 55.31205}
{"name": "赤塔", "lng": 113.550003, "lat": 52.033329}
{"name": "德诺", "lng": 29.96368, "lat": 57.827721}
{"name": "落合", "lng": 142.800003, "lat": 47.349998}
{"name": "杜金卡", "lng": 86.17778, "lat": 69.40583}
{"name": "杜万", "lng": 57.90237, "lat": 55.694969}
{"name": "埃格韦基诺特", "lng": -179.166672, "lat": 66.316673}
{"name": "埃利斯塔", "lng": 44.255829, "lat": 46.307781}
{"name": "加加林", "lng": 34.995369, "lat": 55.55291}
{"name": "格多夫", "lng": 27.81222, "lat": 58.740559}
{"name": "巨人", "lng": 41.34185, "lat": 46.506649}
{"name": "格拉佐夫", "lng": 52.658421, "lat": 58.139408}
{"name": "戈林", "lng": 136.666946, "lat": 51.19833}
{"name": "戈罗多维科夫斯克", "lng": 41.933529, "lat": 46.087849}
{"name": "古杰尔梅斯", "lng": 46.105282, "lat": 43.356941}
{"name": "伊加尔卡", "lng": 86.583328, "lat": 67.466667}
{"name": "是他", "lng": 69.49015, "lat": 56.112808}
{"name": "伊万诺沃", "lng": 40.985832, "lat": 56.994167}
{"name": "伊热夫斯克", "lng": 53.23333, "lat": 56.849998}
{"name": "卡拉奇", "lng": 41.0261, "lat": 50.4258}
{"name": "卡勒瓦拉", "lng": 31.166668, "lat": 65.199997}
{"name": "卡卢加", "lng": 36.275421, "lat": 54.529301}
{"name": "坎达拉克沙", "lng": 32.412289, "lat": 67.162003}
{"name": "坎斯克", "lng": 95.717499, "lat": 56.201672}
{"name": "卡拉布拉克", "lng": 44.896389, "lat": 43.303612}
{"name": "卡拉苏克", "lng": 78.04026, "lat": 53.73772}
{"name": "卡尔塔雷", "lng": 60.646671, "lat": 53.052219}
{"name": "基廉斯克", "lng": 108.111938, "lat": 57.785278}
{"name": "柯尔斯", "lng": 52.244671, "lat": 59.338821}
{"name": "基尔沙诺夫", "lng": 42.722359, "lat": 52.654942}
{"name": "克林", "lng": 36.73333, "lat": 56.333328}
{"name": "科洛姆纳", "lng": 38.778332, "lat": 55.079441}
{"name": "多波加", "lng": 34.261379, "lat": 62.20565}
{"name": "康斯坦丁诺夫斯克", "lng": 41.09222, "lat": 47.582779}
{"name": "科斯特罗马", "lng": 40.934444, "lat": 57.770832}
{"name": "科特拉斯", "lng": 46.655556, "lat": 61.261112}
{"name": "克拉斯诺乌菲姆斯克", "lng": 57.766861, "lat": 56.60585}
{"name": "克鲁泡特金", "lng": 40.575558, "lat": 45.4375}
{"name": "库德姆卡尔", "lng": 54.655998, "lat": 59.017288}
{"name": "昆古尔", "lng": 56.959301, "lat": 57.436798}
{"name": "库皮诺", "lng": 77.29805, "lat": 54.366348}
{"name": "库尔干", "lng": 65.333328, "lat": 55.450001}
{"name": "库尔斯克", "lng": 36.19389, "lat": 51.730282}
{"name": "凯拉", "lng": 111.975304, "lat": 49.577599}
{"name": "李曼", "lng": 47.224049, "lat": 45.784569}
{"name": "利斯基", "lng": 39.51545, "lat": 50.984051}
{"name": "利夫", "lng": 37.606892, "lat": 52.425339}
{"name": "洛沃泽罗", "lng": 35.011665, "lat": 68.004997}
{"name": "马格尼托哥尔斯克", "lng": 59.047218, "lat": 53.41861}
{"name": "妈妈", "lng": 112.898613, "lat": 58.310558}
{"name": "马林斯克", "lng": 87.747223, "lat": 56.21389}
{"name": "马尔科沃", "lng": 107.088058, "lat": 57.32056}
{"name": "梅列乌兹", "lng": 55.916672, "lat": 52.966671}
{"name": "缅泽林斯克", "lng": 53.102581, "lat": 55.727058}
{"name": "莫戈恰", "lng": 119.76667, "lat": 53.73333}
{"name": "莫罗佐夫斯克", "lng": 41.826111, "lat": 48.353889}
{"name": "莫兹多克", "lng": 44.688061, "lat": 43.749168}
{"name": "穆罗姆", "lng": 42.041668, "lat": 55.565556}
{"name": "纳德姆", "lng": 72.51667, "lat": 65.533333}
{"name": "涅温诺梅斯克", "lng": 41.945278, "lat": 44.626667}
{"name": "下乌金斯克", "lng": 99.027603, "lat": 54.9076}
{"name": "诺格利基", "lng": 143.166672, "lat": 51.833328}
{"name": "诺林斯克", "lng": 49.936291, "lat": 57.55962}
{"name": "奥库洛夫卡", "lng": 33.290829, "lat": 58.400829}
{"name": "奥列尼奥克", "lng": 112.469101, "lat": 68.509247}
{"name": "奥涅加", "lng": 38.14035, "lat": 63.906071}
{"name": "奥廖尔", "lng": 36.080276, "lat": 52.965832}
{"name": "帕拉别利", "lng": 81.482498, "lat": 58.697781}
{"name": "游击队城", "lng": 133.133896, "lat": 43.125832}
{"name": "帕韦列茨", "lng": 39.24601, "lat": 53.78833}
{"name": "伯朝拉河", "lng": 57.224388, "lat": 65.147163}
{"name": "奔萨", "lng": 45.004639, "lat": 53.200661}
{"name": "彼得罗夫斯克", "lng": 45.39167, "lat": 52.306389}
{"name": "皮涅加", "lng": 43.39362, "lat": 64.700142}
{"name": "波克罗夫卡", "lng": 131.649994, "lat": 43.950001}
{"name": "普斯科夫", "lng": 28.3496, "lat": 57.813599}
{"name": "罗斯托夫", "lng": 39.41394, "lat": 57.191399}
{"name": "雷宾斯克", "lng": 38.84259, "lat": 58.044601}
{"name": "萨兰斯克", "lng": 45.1749, "lat": 54.1838}
{"name": "萨拉普尔", "lng": 53.797821, "lat": 56.47633}
{"name": "萨索沃", "lng": 41.919861, "lat": 54.353691}
{"name": "谢苗诺夫", "lng": 44.49297, "lat": 56.787491}
{"name": "谢罗夫", "lng": 60.578701, "lat": 59.60334}
{"name": "申库尔斯克", "lng": 42.89595, "lat": 62.1091}
{"name": "石勒喀河", "lng": 116.033333, "lat": 51.849998}
{"name": "斯科沃罗季诺", "lng": 123.916672, "lat": 53.98333}
{"name": "斯拉夫戈罗德", "lng": 78.644897, "lat": 52.997799}
{"name": "索托瓦拉", "lng": 30.69178, "lat": 61.705318}
{"name": "索斯诺沃", "lng": 30.214411, "lat": 60.551449}
{"name": "索西瓦", "lng": 61.855789, "lat": 59.17662}
{"name": "斯列坚斯克", "lng": 117.709297, "lat": 52.2453}
{"name": "斯塔里察", "lng": 34.93544, "lat": 56.507519}
{"name": "斯塔夫罗波尔", "lng": 41.973331, "lat": 45.042778}
{"name": "斯捷尔利塔马克", "lng": 55.95015, "lat": 53.624619}
{"name": "苏拉", "lng": 45.74192, "lat": 53.887859}
{"name": "斯韦特洛格勒", "lng": 42.854721, "lat": 45.335281}
{"name": "塔甘罗格", "lng": 38.896881, "lat": 47.236172}
{"name": "坦波夫", "lng": 41.433891, "lat": 52.73167}
{"name": "塔拉", "lng": 74.370956, "lat": 56.89436}
{"name": "鞑靼斯克", "lng": 75.982841, "lat": 55.21904}
{"name": "塔夫达", "lng": 65.272583, "lat": 58.042542}
{"name": "捷别尔达", "lng": 41.744801, "lat": 43.445648}
{"name": "捷姆尼科夫", "lng": 43.214828, "lat": 54.63023}
{"name": "捷夫里兹", "lng": 72.404198, "lat": 57.508999}
{"name": "季克西", "lng": 128.869446, "lat": 71.687218}
{"name": "托博尔斯克", "lng": 68.26667, "lat": 58.200001}
{"name": "托古钦", "lng": 84.385834, "lat": 55.235279}
{"name": "特鲁布切夫斯克", "lng": 33.7644, "lat": 52.5798}
{"name": "图阿普谢", "lng": 39.074165, "lat": 44.112499}
{"name": "图拉", "lng": 37.611111, "lat": 54.204441}
{"name": "图伦", "lng": 100.57917, "lat": 54.561111}
{"name": "图拉", "lng": 100.25, "lat": 64.283333}
{"name": "图林斯克", "lng": 63.696049, "lat": 58.04575}
{"name": "滕达", "lng": 124.716667, "lat": 55.166672}
{"name": "乌格里哥斯克", "lng": 142.033325, "lat": 49.083328}
{"name": "乌廖特", "lng": 112.484901, "lat": 51.357201}
{"name": "翁巴", "lng": 34.342918, "lat": 66.687057}
{"name": "韦列夏吉诺", "lng": 54.655701, "lat": 58.078941}
{"name": "韦特卢加", "lng": 45.781021, "lat": 57.85574}
{"name": "维季姆河", "lng": 112.557777, "lat": 59.451111}
{"name": "弗拉基高加索", "lng": 44.667782, "lat": 43.036671}
{"name": "弗拉迪米尔", "lng": 40.39658, "lat": 56.136551}
{"name": "沃洛科拉姆斯克", "lng": 35.96944, "lat": 56.033611}
{"name": "维堡", "lng": 28.752831, "lat": 60.70763}
{"name": "维克萨", "lng": 42.174438, "lat": 55.317501}
{"name": "维捷格拉", "lng": 36.448109, "lat": 61.006359}
{"name": "济马", "lng": 102.044197, "lat": 53.9202}
{"name": "兹拉托乌斯特", "lng": 59.650829, "lat": 55.171108}
{"name": "阿利坎特", "lng": -0.48149, "lat": 38.345169}
{"name": "香格里拉马格罗", "lng": -3.71132, "lat": 38.889408}
{"name": "卡塞雷斯", "lng": -6.37224, "lat": 39.47649}
{"name": "休达", "lng": -5.31979, "lat": 35.889332}
{"name": "昆卡", "lng": -2.13333, "lat": 40.066669}
{"name": "希洪", "lng": -5.66152, "lat": 43.535728}
{"name": "韦尔瓦", "lng": -6.95083, "lat": 37.258331}
{"name": "伊维萨", "lng": 1.43296, "lat": 38.908829}
{"name": "哈恩", "lng": -3.78333, "lat": 37.76667}
{"name": "莱里达", "lng": 0.61667, "lat": 41.616669}
{"name": "梅利利亚", "lng": -2.93833, "lat": 35.29369}
{"name": "纳瓦塞拉达", "lng": -4.01696, "lat": 40.72905}
{"name": "奥维耶多", "lng": -5.84476, "lat": 43.360291}
{"name": "庞费拉达", "lng": -6.59619, "lat": 42.546638}
{"name": "庞特维德拉", "lng": -8.64435, "lat": 42.431}
{"name": "罗塔", "lng": -6.35859, "lat": 36.62236}
{"name": "塞戈维亚", "lng": -4.11667, "lat": 40.950001}
{"name": "索里亚", "lng": -2.46883, "lat": 41.764011}
{"name": "塔里", "lng": -5.60695, "lat": 36.013931}
{"name": "特鲁埃尔", "lng": -1.10646, "lat": 40.3456}
{"name": "托莱多", "lng": -4.02263, "lat": 39.858101}
{"name": "托尔托萨", "lng": 0.5216, "lat": 40.812489}
{"name": "巴利亚多利德", "lng": -4.72372, "lat": 41.655182}
{"name": "萨莫拉", "lng": -5.75, "lat": 41.5}
{"name": "阿尔耶普卢格市", "lng": 17.886061, "lat": 66.051727}
{"name": "阿尔维斯", "lng": 19.166821, "lat": 65.590332}
{"name": "阿尔维卡", "lng": 12.58518, "lat": 59.655281}
{"name": "奥瑟勒", "lng": 17.33333, "lat": 64.166672}
{"name": "博登", "lng": 21.688641, "lat": 65.82518}
{"name": "埃斯宾", "lng": 15.81747, "lat": 61.376919}
{"name": "恩科平", "lng": 17.077681, "lat": 59.63607}
{"name": "埃斯基尔斯蒂纳", "lng": 16.5077, "lat": 59.366611}
{"name": "耶夫勒", "lng": 17.141741, "lat": 60.674519}
{"name": "哈帕兰达", "lng": 24.136761, "lat": 65.835487}
{"name": "赫尔辛堡", "lng": 12.69437, "lat": 56.04673}
{"name": "卡尔马", "lng": 16.361629, "lat": 56.661572}
{"name": "卡尔斯堡", "lng": 14.5047, "lat": 58.537239}
{"name": "卡尔斯克鲁纳", "lng": 15.58661, "lat": 56.16156}
{"name": "莱克塞勒", "lng": 18.67351, "lat": 64.595367}
{"name": "马隆", "lng": 13.71542, "lat": 60.683289}
{"name": "诺尔雪平", "lng": 16.1826, "lat": 58.594189}
{"name": "奥雷布洛", "lng": 15.2066, "lat": 59.27412}
{"name": "恩舍尔兹维克", "lng": 18.71525, "lat": 63.290909}
{"name": "帕亚拉", "lng": 23.36607, "lat": 67.212837}
{"name": "龙讷比", "lng": 15.27602, "lat": 56.209991}
{"name": "谢莱夫特奥", "lng": 20.952789, "lat": 64.750671}
{"name": "孙讷", "lng": 13.14302, "lat": 59.837639}
{"name": "斯韦戈", "lng": 14.36577, "lat": 62.034069}
{"name": "图灵厄", "lng": 17.9, "lat": 59.200001}
{"name": "于默奥", "lng": 20.25972, "lat": 63.828419}
{"name": "乌普萨拉", "lng": 17.64543, "lat": 59.858501}
{"name": "威廉明娜", "lng": 16.656281, "lat": 64.626839}
{"name": "阿德尔博登", "lng": 7.56031, "lat": 46.491421}
{"name": "艾格勒", "lng": 6.96457, "lat": 46.3181}
{"name": "阿尔特多夫", "lng": 8.64441, "lat": 46.880421}
{"name": "阿罗萨", "lng": 9.67621, "lat": 46.777931}
{"name": "布里恩茨", "lng": 8.03847, "lat": 46.754501}
{"name": "湛", "lng": 8.46358, "lat": 47.182129}
{"name": "库尔", "lng": 9.53287, "lat": 46.849861}
{"name": "达沃斯", "lng": 9.83723, "lat": 46.804291}
{"name": "艾因西德伦", "lng": 8.75, "lat": 47.116669}
{"name": "英格堡", "lng": 8.40133, "lat": 46.821072}
{"name": "吉斯维尔", "lng": 8.18065, "lat": 46.833328}
{"name": "格拉鲁斯", "lng": 9.06804, "lat": 47.040569}
{"name": "格伦岑", "lng": 7.39586, "lat": 47.192101}
{"name": "因特拉肯", "lng": 7.86638, "lat": 46.683868}
{"name": "卢加诺", "lng": 8.96004, "lat": 46.010078}
{"name": "卢塞恩", "lng": 8.30635, "lat": 47.05048}
{"name": "迈林根", "lng": 8.18396, "lat": 46.72678}
{"name": "蒙大拿", "lng": 7.48408, "lat": 46.312641}
{"name": "纳沙泰尔", "lng": 6.931, "lat": 46.991791}
{"name": "帕耶讷", "lng": 6.93608, "lat": 46.82201}
{"name": "波斯基亚沃", "lng": 10.05721, "lat": 46.324402}
{"name": "沙夫豪森", "lng": 8.63493, "lat": 47.697319}
{"name": "施库尔", "lng": 10.30595, "lat": 46.796761}
{"name": "锡永", "lng": 7.35942, "lat": 46.22908}
{"name": "斯塔比奥", "lng": 8.93918, "lat": 45.85099}
{"name": "菲斯普", "lng": 7.88149, "lat": 46.293701}
{"name": "阿拉莫萨", "lng": -105.870018, "lat": 37.469452}
{"name": "阿梅里奥", "lng": -92.362137, "lat": 45.306911}
{"name": "贝克利", "lng": -81.188164, "lat": 37.778172}
{"name": "布罗克", "lng": -71.018379, "lat": 42.083431}
{"name": "伯恩斯", "lng": -119.0541, "lat": 43.586262}
{"name": "森特维尔", "lng": -77.428879, "lat": 38.840389}
{"name": "张伯伦", "lng": -99.330658, "lat": 43.810829}
{"name": "哈森", "lng": -93.530792, "lat": 44.86219}
{"name": "切萨皮克", "lng": -76.27494, "lat": 36.819038}
{"name": "夏安", "lng": -104.820251, "lat": 41.13998}
{"name": "克雷格", "lng": -107.546448, "lat": 40.515251}
{"name": "克罗斯维尔", "lng": -85.026901, "lat": 35.948959}
{"name": "杜兰戈", "lng": -107.880074, "lat": 37.27528}
{"name": "伊丽莎白", "lng": -74.210701, "lat": 40.66399}
{"name": "埃尔科", "lng": -115.763123, "lat": 40.83242}
{"name": "埃斯卡诺巴", "lng": -87.064583, "lat": 45.745251}
{"name": "弗拉格斯塔夫", "lng": -111.651268, "lat": 35.198071}
{"name": "弗兰肯", "lng": -77.14637, "lat": 38.782059}
{"name": "加尔维斯顿", "lng": -94.797699, "lat": 29.30135}
{"name": "汉福德", "lng": -119.645683, "lat": 36.32745}
{"name": "哈蒂斯堡", "lng": -89.290337, "lat": 31.32712}
{"name": "亨利", "lng": -89.356483, "lat": 41.11142}
{"name": "基奈", "lng": -151.258331, "lat": 60.55444}
{"name": "科迪亚克", "lng": -152.407227, "lat": 57.790001}
{"name": "利胡埃", "lng": -159.367188, "lat": 21.978861}
{"name": "琳达", "lng": -121.550797, "lat": 39.12767}
{"name": "马凯特", "lng": -87.395416, "lat": 46.543541}
{"name": "马赛", "lng": -88.70813, "lat": 41.330872}
{"name": "奥林匹亚", "lng": -122.900703, "lat": 47.037868}
{"name": "奥马哈", "lng": -95.93779, "lat": 41.25861}
{"name": "奥马克", "lng": -119.52755, "lat": 48.410992}
{"name": "奥兰多", "lng": -81.379242, "lat": 28.53834}
{"name": "帕迪尤卡", "lng": -88.600052, "lat": 37.083389}
{"name": "裴吉", "lng": -111.455833, "lat": 36.914719}
{"name": "彭萨科拉", "lng": -87.216911, "lat": 30.42131}
{"name": "罗利", "lng": -78.638611, "lat": 35.772099}
{"name": "罗马", "lng": -75.455727, "lat": 43.212849}
{"name": "罗斯福", "lng": -109.988762, "lat": 40.2994}
{"name": "拉姆福德", "lng": -70.550903, "lat": 44.553669}
{"name": "塞勒姆", "lng": -123.035103, "lat": 44.942902}
{"name": "索尔兹伯里", "lng": -75.599373, "lat": 38.360668}
{"name": "苏厄德", "lng": -149.442215, "lat": 60.104172}
{"name": "锡特卡", "lng": -135.330002, "lat": 57.053059}
{"name": "塔拉哈西", "lng": -84.280731, "lat": 30.438259}
{"name": "托皮卡", "lng": -95.67804, "lat": 39.048328}
{"name": "厄普顿", "lng": -71.602287, "lat": 42.174541}
{"name": "瓦尔迪兹", "lng": -146.348328, "lat": 61.130829}
{"name": "瓦利", "lng": -85.17939, "lat": 32.818741}
{"name": "威尔士", "lng": -88.376762, "lat": 43.004452}
{"name": "温菲尔德", "lng": -92.639587, "lat": 31.92544}
{"name": "温斯洛", "lng": -110.697357, "lat": 35.024189}
{"name": "兰格尔", "lng": -132.376663, "lat": 56.470829}
{"name": "亚西亚特", "lng": -52.869881, "lat": 68.709808}
{"name": "阿巴代", "lng": 52.6506, "lat": 31.160801}
{"name": "网走", "lng": 144.269714, "lat": 44.021271}
{"name": "阿贝歇", "lng": 20.832399, "lat": 13.82916}
{"name": "艾卜哈", "lng": 42.50528, "lat": 18.216391}
{"name": "阿比让", "lng": -4.01972, "lat": 5.30943}
{"name": "阿卡胡特拉", "lng": -89.827499, "lat": 13.59278}
{"name": "阿卡里瓜", "lng": -69.195641, "lat": 9.55451}
{"name": "阿克拉", "lng": -0.1969, "lat": 5.55602}
{"name": "Adam", "lng": 57.523338, "lat": 22.375601}
{"name": "阿达帕扎勒", "lng": 30.40333, "lat": 40.78056}
{"name": "阿迪亚克", "lng": -3.30402, "lat": 5.28634}
{"name": "阿迪拉巴德", "lng": 78.533333, "lat": 19.66667}
{"name": "阿德亚曼省", "lng": 38.276291, "lat": 37.764408}
{"name": "阿德茹德", "lng": 27.16667, "lat": 46.099998}
{"name": "阿加尔塔拉", "lng": 91.275002, "lat": 23.83639}
{"name": "阿格达姆", "lng": 46.927361, "lat": 39.990959}
{"name": "Agri", "lng": 43.051392, "lat": 39.71944}
{"name": "阿瓜斯卡连特斯", "lng": -102.300003, "lat": 21.883329}
{"name": "阿哈尔", "lng": 47.069901, "lat": 38.477402}
{"name": "艾哈迈德讷格尔", "lng": 74.73333, "lat": 19.08333}
{"name": "阿杰梅尔", "lng": 74.633331, "lat": 26.450001}
{"name": "阿克希萨", "lng": 27.840059, "lat": 38.918522}
{"name": "秋田", "lng": 140.116669, "lat": 39.716671}
{"name": "阿科拉", "lng": 77.0, "lat": 20.73333}
{"name": "阿克萨赖", "lng": 34.025372, "lat": 38.372551}
{"name": "阿克谢希尔", "lng": 31.416389, "lat": 38.357498}
{"name": "阿久根", "lng": 130.199997, "lat": 32.01667}
{"name": "阿拉尼亚", "lng": 31.999821, "lat": 36.543751}
{"name": "奥尔巴尼", "lng": 117.89167, "lat": -35.016941}
{"name": "亚历山大", "lng": 25.33333, "lat": 43.98333}
{"name": "阿里格尔", "lng": 78.083328, "lat": 27.883329}
{"name": "阿林道", "lng": 21.208759, "lat": 5.02666}
{"name": "阿卢什塔", "lng": 34.416668, "lat": 44.666668}
{"name": "阿尔", "lng": 76.599998, "lat": 27.566669}
{"name": "阿马哈伊", "lng": 128.916672, "lat": -3.33333}
{"name": "阿马帕拉", "lng": -87.653893, "lat": 13.29222}
{"name": "阿马西亚", "lng": 35.833061, "lat": 40.653332}
{"name": "安巴拉", "lng": 76.78083, "lat": 30.37833}
{"name": "安雷利", "lng": 71.23333, "lat": 21.616671}
{"name": "阿姆利则", "lng": 74.865562, "lat": 31.63306}
{"name": "安达帕", "lng": 49.650002, "lat": -14.65}
{"name": "安东", "lng": 128.725006, "lat": 36.565559}
{"name": "安古尔", "lng": 85.099998, "lat": 20.85}
{"name": "安州", "lng": 125.664719, "lat": 39.617779}
{"name": "安纳巴", "lng": 7.76667, "lat": 36.900002}
{"name": "安塔拉哈", "lng": 50.278759, "lat": -14.90033}
{"name": "安楚希希", "lng": 47.987511, "lat": -14.87959}
{"name": "阿努普加尔", "lng": 73.208611, "lat": 29.191111}
{"name": "阿努拉德普勒", "lng": 80.417259, "lat": 8.35647}
{"name": "阿皮亚", "lng": -171.766663, "lat": -13.83333}
{"name": "阿拉德", "lng": 21.316669, "lat": 46.183331}
{"name": "阿拉克", "lng": 49.689159, "lat": 34.09174}
{"name": "亚兰", "lng": 102.501282, "lat": 13.69276}
{"name": "阿勒山", "lng": 44.704891, "lat": 39.831661}
{"name": "阿尔达汉", "lng": 42.702221, "lat": 41.108711}
{"name": "阿里卡", "lng": -70.304169, "lat": -18.475}
{"name": "阿里耶卢尔", "lng": 79.083328, "lat": 11.13333}
{"name": "阿尔马维尔", "lng": 44.038151, "lat": 40.154461}
{"name": "阿米代尔", "lng": 151.649994, "lat": -30.51667}
{"name": "阿姆斯壮", "lng": -119.202347, "lat": 50.449791}
{"name": "阿里亚加", "lng": -93.900002, "lat": 16.23333}
{"name": "阿尔塔沙特", "lng": 44.544472, "lat": 39.961441}
{"name": "阿尔特米萨", "lng": -82.76194, "lat": 22.813061}
{"name": "阿蒂加斯", "lng": -56.466671, "lat": -30.4}
{"name": "阿尔特温", "lng": 41.819439, "lat": 41.18222}
{"name": "阿鲁阿", "lng": 30.911051, "lat": 3.02013}
{"name": "阿鲁沙", "lng": 36.683331, "lat": -3.36667}
{"name": "旭川", "lng": 142.370285, "lat": 43.76778}
{"name": "阿什塔拉克", "lng": 44.362041, "lat": 40.299099}
{"name": "阿萨布", "lng": 42.739441, "lat": 13.00917}
{"name": "阿斯塔拉", "lng": 48.874981, "lat": 38.455978}
{"name": "Asuncion", "lng": -57.63591, "lat": -25.300659}
{"name": "艾斯尤特", "lng": 31.18368, "lat": 27.18096}
{"name": "阿特巴萨尔", "lng": 68.333328, "lat": 51.799999}
{"name": "阿提", "lng": 18.3353, "lat": 13.2154}
{"name": "阿蒂科肯", "lng": -91.621597, "lat": 48.755508}
{"name": "奥基", "lng": 160.703354, "lat": -8.76761}
{"name": "奥兰加巴德", "lng": 75.333328, "lat": 19.883329}
{"name": "阿克西姆", "lng": -2.24046, "lat": 4.86992}
{"name": "Ayacucho", "lng": -74.223892, "lat": -13.15833}
{"name": "艾登省", "lng": 27.83963, "lat": 37.845009}
{"name": "艾瓦勒克", "lng": 26.6954, "lat": 39.31905}
{"name": "阿扎姆加尔", "lng": 83.186111, "lat": 26.059999}
{"name": "Badin", "lng": 68.838409, "lat": 24.655991}
{"name": "巴杜勒", "lng": 81.055702, "lat": 6.9895}
{"name": "Bahawalnagar", "lng": 73.253601, "lat": 29.998659}
{"name": "Bahawalpur", "lng": 71.683327, "lat": 29.4}
{"name": "Bahla", "lng": 57.29958, "lat": 22.973391}
{"name": "巴卡纳斯", "lng": 76.277222, "lat": 44.80806}
{"name": "巴拉索尔", "lng": 86.931671, "lat": 21.494169}
{"name": "巴勒凯西尔", "lng": 27.88611, "lat": 39.64917}
{"name": "巴尔蒂", "lng": 27.92889, "lat": 47.761669}
{"name": "巴卢尔加特", "lng": 88.76667, "lat": 25.216669}
{"name": "巴姆", "lng": 58.356998, "lat": 29.106001}
{"name": "班巴里", "lng": 20.67565, "lat": 5.76795}
{"name": "巴门达", "lng": 10.15824, "lat": 5.95266}
{"name": "班达", "lng": 80.333328, "lat": 25.48333}
{"name": "班德尔马", "lng": 27.976669, "lat": 40.352219}
{"name": "班顿杜", "lng": 17.366671, "lat": -3.31667}
{"name": "班夫", "lng": -115.569817, "lat": 51.17622}
{"name": "班加苏", "lng": 22.81838, "lat": 4.74132}
{"name": "班吉", "lng": 18.55496, "lat": 4.36122}
{"name": "伯尼哈尔", "lng": 75.199997, "lat": 33.416672}
{"name": "班珠尔", "lng": -16.57803, "lat": 13.45274}
{"name": "班库拉", "lng": 87.066673, "lat": 23.25}
{"name": "Bannu", "lng": 70.602699, "lat": 32.985409}
{"name": "班斯瓦拉县", "lng": 74.449997, "lat": 23.549999}
{"name": "外南梦", "lng": 114.357552, "lat": -8.2325}
{"name": "bar", "lng": 20.219311, "lat": 44.943661}
{"name": "巴拉科亚", "lng": -74.495827, "lat": 20.34667}
{"name": "巴尔达", "lng": 47.126671, "lat": 40.374439}
{"name": "巴雷利", "lng": 79.416672, "lat": 28.35}
{"name": "巴里卡", "lng": 5.36584, "lat": 35.389011}
{"name": "巴里萨尔", "lng": 90.371109, "lat": 22.701941}
{"name": "Barkhan", "lng": 69.525551, "lat": 29.897699}
{"name": "伯尔拉德", "lng": 27.66667, "lat": 46.23333}
{"name": "巴尔默", "lng": 71.383331, "lat": 25.75}
{"name": "巴坦", "lng": 32.337502, "lat": 41.63583}
{"name": "巴索科", "lng": 23.61598, "lat": 1.23909}
{"name": "巴斯特尔", "lng": -62.726101, "lat": 17.29484}
{"name": "巴斯蒂", "lng": 82.716667, "lat": 26.799999}
{"name": "巴塔", "lng": 9.76582, "lat": 1.86391}
{"name": "巴塔瓦诺", "lng": -82.288063, "lat": 22.716391}
{"name": "巴特纳", "lng": 6.17414, "lat": 35.555969}
{"name": "巴图里", "lng": 14.36667, "lat": 4.43333}
{"name": "拜蒂克洛", "lng": 81.692398, "lat": 7.7102}
{"name": "博契", "lng": 9.84327, "lat": 10.31344}
{"name": "包斯卡", "lng": 24.190559, "lat": 56.407501}
{"name": "巴彦洪戈尔", "lng": 100.116669, "lat": 46.716671}
{"name": "巴伊布尔特", "lng": 40.227779, "lat": 40.258888}
{"name": "贝谢", "lng": 23.950001, "lat": 43.76667}
{"name": "拜特布里奇", "lng": 30.0, "lat": -22.216669}
{"name": "贝雅", "lng": 9.18169, "lat": 36.725639}
{"name": "贝尔高姆", "lng": 74.5, "lat": 15.86667}
{"name": "贝拉里", "lng": 76.933327, "lat": 15.15}
{"name": "柏培拉", "lng": 45.01432, "lat": 10.43959}
{"name": "贝贝拉蒂", "lng": 15.79216, "lat": 4.26116}
{"name": "贝罗沃", "lng": 22.85778, "lat": 41.70306}
{"name": "贝尔图阿", "lng": 13.68333, "lat": 4.58333}
{"name": "贝瑟尔", "lng": 29.46553, "lat": -26.457939}
{"name": "伯利恒", "lng": 28.30707, "lat": -28.23078}
{"name": "贝杜尔", "lng": 77.896111, "lat": 21.915279}
{"name": "帕戈尔布尔", "lng": 87.0, "lat": 25.25}
{"name": "八莫", "lng": 97.23333, "lat": 24.26667}
{"name": "珀勒德布尔", "lng": 77.48333, "lat": 27.216667}
{"name": "珀丁达", "lng": 74.949997, "lat": 30.200001}
{"name": "比尔瓦拉", "lng": 74.633331, "lat": 25.35}
{"name": "平德", "lng": 78.78833, "lat": 26.564171}
{"name": "波拉", "lng": 90.650002, "lat": 22.683331}
{"name": "普杰", "lng": 69.666672, "lat": 23.26667}
{"name": "Bialystok", "lng": 23.15, "lat": 53.133331}
{"name": "尔必达", "lng": 6.01667, "lat": 9.08333}
{"name": "比德尔", "lng": 77.550003, "lat": 17.9}
{"name": "比哈奇", "lng": 15.87083, "lat": 44.81694}
{"name": "比贾普尔", "lng": 75.699997, "lat": 16.83333}
{"name": "比拉斯普尔", "lng": 82.150002, "lat": 22.08333}
{"name": "比莱吉克", "lng": 29.979321, "lat": 40.141918}
{"name": "比尔马", "lng": 12.91643, "lat": 18.68532}
{"name": "宾戈尔", "lng": 40.493889, "lat": 38.88472}
{"name": "比罗", "lng": 22.788179, "lat": 10.28488}
{"name": "比尔詹德", "lng": 59.221142, "lat": 32.86628}
{"name": "比斯特里察", "lng": 24.500111, "lat": 47.13316}
{"name": "比塔姆", "lng": 11.50065, "lat": 2.07597}
{"name": "比托拉", "lng": 21.340281, "lat": 41.031109}
{"name": "比通", "lng": 125.182404, "lat": 1.4451}
{"name": "比塞大", "lng": 9.87391, "lat": 37.274422}
{"name": "Bluefields", "lng": -83.763527, "lat": 12.01366}
{"name": "博", "lng": -11.73833, "lat": 7.96472}
{"name": "博德鲁姆", "lng": 27.429171, "lat": 37.03833}
{"name": "博恩", "lng": 20.866671, "lat": -0.21667}
{"name": "波哥大", "lng": -74.081749, "lat": 4.60971}
{"name": "博克", "lng": -14.29665, "lat": 10.94094}
{"name": "博科罗", "lng": 17.056801, "lat": 12.3807}
{"name": "博卢", "lng": 31.60611, "lat": 40.735828}
{"name": "博纳维斯塔", "lng": -53.114738, "lat": 48.649891}
{"name": "邦杜库", "lng": -2.8, "lat": 8.03333}
{"name": "邦特", "lng": -12.505, "lat": 7.52639}
{"name": "博罗莫", "lng": -2.93333, "lat": 11.75}
{"name": "鲍里斯波尔", "lng": 30.950001, "lat": 50.349998}
{"name": "博桑戈阿", "lng": 17.455179, "lat": 6.49263}
{"name": "博托沙尼", "lng": 26.66667, "lat": 47.75}
{"name": "布瓦凯市", "lng": -5.02177, "lat": 7.68949}
{"name": "布阿尔", "lng": 15.59599, "lat": 5.93404}
{"name": "布古尼", "lng": -7.47899, "lat": 11.41699}
{"name": "布索", "lng": 16.7117, "lat": 10.4795}
{"name": "博兹贾阿达", "lng": 26.069719, "lat": 39.834999}
{"name": "Braganca", "lng": -6.75719, "lat": 41.80582}
{"name": "布勒伊拉", "lng": 27.98333, "lat": 45.26667}
{"name": "布拉柴维尔", "lng": 15.28318, "lat": -4.26583}
{"name": "布里亚", "lng": 21.98633, "lat": 6.54233}
{"name": "布里奇顿", "lng": -59.616669, "lat": 13.1}
{"name": "布洛迪", "lng": 25.15027, "lat": 50.08791}
{"name": "布埃纳文图拉", "lng": -77.031158, "lat": 3.8801}
{"name": "布戈伊诺", "lng": 17.45083, "lat": 44.05722}
{"name": "布琼布拉", "lng": 29.364401, "lat": -3.3822}
{"name": "布卡武", "lng": 28.86083, "lat": -2.50833}
{"name": "布科巴", "lng": 31.81222, "lat": -1.33167}
{"name": "布拉瓦约", "lng": 28.58333, "lat": -20.15}
{"name": "布尔干", "lng": 103.534721, "lat": 48.8125}
{"name": "本巴", "lng": 22.466669, "lat": 2.18333}
{"name": "本迪", "lng": 75.64167, "lat": 25.441669}
{"name": "布尼亚", "lng": 30.25, "lat": 1.56667}
{"name": "布尔杜尔", "lng": 30.290831, "lat": 37.72028}
{"name": "布塔", "lng": 24.72998, "lat": 2.78582}
{"name": "布塔雷", "lng": 29.739441, "lat": -2.59667}
{"name": "布滕博", "lng": 29.283331, "lat": 0.15}
{"name": "巴特沃思", "lng": 100.363823, "lat": 5.3991}
{"name": "巴特沃斯", "lng": 28.149811, "lat": -32.33083}
{"name": "布泽乌", "lng": 26.83333, "lat": 45.150002}
{"name": "Bydgoszcz", "lng": 18.00762, "lat": 53.123501}
{"name": "卡宾达", "lng": 12.2, "lat": -5.55}
{"name": "卡布雷拉", "lng": -69.9049, "lat": 19.642599}
{"name": "卡古尔", "lng": 28.194441, "lat": 45.907501}
{"name": "凯巴连", "lng": -79.466942, "lat": 22.520559}
{"name": "开罗", "lng": 31.24967, "lat": 30.06263}
{"name": "Cajamarca", "lng": -78.500267, "lat": -7.16378}
{"name": "卡拉巴尔", "lng": 8.322, "lat": 4.9517}
{"name": "卡拉沃索", "lng": -67.429291, "lat": 8.92416}
{"name": "卡拉法特", "lng": 22.932779, "lat": 43.991112}
{"name": "卡拉马", "lng": -68.933327, "lat": -22.466669}
{"name": "克勒拉希", "lng": 27.26667, "lat": 47.616669}
{"name": "维尼亚", "lng": 19.776011, "lat": -31.47069}
{"name": "卡马圭", "lng": -77.916939, "lat": 21.380831}
{"name": "卡米里", "lng": -63.51667, "lat": -20.049999}
{"name": "坎佩切", "lng": -90.533333, "lat": 19.85}
{"name": "恰纳卡莱", "lng": 26.406389, "lat": 40.145561}
{"name": "甘宁", "lng": 88.671387, "lat": 22.31889}
{"name": "卡兰塞贝什", "lng": 22.216669, "lat": 45.416672}
{"name": "扎尔", "lng": -66.98632, "lat": 10.34985}
{"name": "采列", "lng": 15.26044, "lat": 46.230919}
{"name": "切什梅", "lng": 26.306391, "lat": 38.322781}
{"name": "Chachapoyas", "lng": -77.869034, "lat": -6.23169}
{"name": "猜也蓬", "lng": 102.028809, "lat": 15.81047}
{"name": "占城", "lng": 82.650002, "lat": 22.049999}
{"name": "昌迪加尔", "lng": 76.793297, "lat": 30.734301}
{"name": "德拉布尔", "lng": 79.300003, "lat": 19.950001}
{"name": "庄他武里", "lng": 102.104469, "lat": 12.60961}
{"name": "清州", "lng": 127.489723, "lat": 36.637218}
{"name": "Cherat", "lng": 71.891533, "lat": 33.82328}
{"name": "切尔卡瑟", "lng": 32.062069, "lat": 49.428539}
{"name": "乌克兰", "lng": 31.28488, "lat": 51.505508}
{"name": "切尔诺夫策", "lng": 25.94034, "lat": 48.291489}
{"name": "乞拉朋齐", "lng": 91.699997, "lat": 25.299999}
{"name": "切图马尔", "lng": -88.300003, "lat": 18.5}
{"name": "钦德瓦拉", "lng": 78.933327, "lat": 22.066669}
{"name": "千叶", "lng": 140.123337, "lat": 35.604721}
{"name": "希布加莫", "lng": -74.36586, "lat": 49.91684}
{"name": "秩父", "lng": 139.076385, "lat": 35.99028}
{"name": "Chiclayo", "lng": -79.841667, "lat": -6.77361}
{"name": "奇廉", "lng": -72.103439, "lat": -36.60664}
{"name": "Chimbote", "lng": -78.578331, "lat": -9.08528}
{"name": "希莫尤", "lng": 33.48333, "lat": -19.11639}
{"name": "Chinandega", "lng": -87.13105, "lat": 12.62937}
{"name": "奇诺伊", "lng": 30.200001, "lat": -17.366671}
{"name": "钦塔马尼", "lng": 78.066673, "lat": 13.4}
{"name": "奇帕塔", "lng": 32.650002, "lat": -13.63333}
{"name": "奇平盖", "lng": 32.623638, "lat": -20.18833}
{"name": "奇蒂帕", "lng": 33.269691, "lat": -9.70237}
{"name": "奇特拉达加", "lng": 76.400002, "lat": 14.23333}
{"name": "Chojnice", "lng": 17.557011, "lat": 53.695541}
{"name": "乔马", "lng": 26.95306, "lat": -16.80648}
{"name": "春蓬", "lng": 99.166672, "lat": 10.5}
{"name": "春川", "lng": 127.734169, "lat": 37.874722}
{"name": "西恩富戈斯", "lng": -80.435562, "lat": 22.146111}
{"name": "夸察夸尔科斯", "lng": -94.416672, "lat": 18.15}
{"name": "科维哈", "lng": -68.76918, "lat": -11.02671}
{"name": "考昆", "lng": -72.569504, "lat": -47.255699}
{"name": "哥印拜陀", "lng": 76.966667, "lat": 11.0}
{"name": "Coimbra", "lng": -8.41955, "lat": 40.205639}
{"name": "科利马", "lng": -103.716667, "lat": 19.23333}
{"name": "库米拉", "lng": 91.204437, "lat": 23.457781}
{"name": "科纳克里", "lng": -13.67729, "lat": 9.53795}
{"name": "康塞普西翁", "lng": -73.049767, "lat": -36.826988}
{"name": "Concepcion", "lng": -57.434441, "lat": -23.406389}
{"name": "康塞普西翁", "lng": -60.900002, "lat": -16.433331}
{"name": "康斯坦丁", "lng": 6.61472, "lat": 36.365002}
{"name": "孔特拉马埃斯特雷", "lng": -76.241386, "lat": 20.297779}
{"name": "Corinto", "lng": -87.173363, "lat": 12.48199}
{"name": "乔尔卢", "lng": 27.799999, "lat": 41.159168}
{"name": "科罗", "lng": -69.673439, "lat": 11.4045}
{"name": "昆仑", "lng": 34.953331, "lat": 40.548889}
{"name": "克兰", "lng": -115.768791, "lat": 49.499908}
{"name": "库安巴", "lng": 36.53722, "lat": -14.80306}
{"name": "古德洛尔", "lng": 79.75, "lat": 11.75}
{"name": "古德伯", "lng": 78.816673, "lat": 14.46667}
{"name": "库埃纳瓦卡", "lng": -99.25, "lat": 18.91667}
{"name": "库利亚坎", "lng": -107.389717, "lat": 24.79944}
{"name": "库马纳", "lng": -64.177498, "lat": 10.46354}
{"name": "Cuprija", "lng": 21.370001, "lat": 43.927502}
{"name": "库里科", "lng": -71.23333, "lat": -34.98333}
{"name": "克塔克", "lng": 85.879272, "lat": 20.46497}
{"name": "Czestochowa", "lng": 19.12409, "lat": 50.796459}
{"name": "Dadeldhura", "lng": 80.580589, "lat": 29.29842}
{"name": "大田", "lng": 127.419724, "lat": 36.321388}
{"name": "达喀尔", "lng": -17.444059, "lat": 14.6937}
{"name": "达拉曼", "lng": 28.802799, "lat": 36.765911}
{"name": "Dalbandin", "lng": 64.410088, "lat": 28.894699}
{"name": "达尔豪斯", "lng": 75.98333, "lat": 32.533329}
{"name": "达洛亚", "lng": -6.45022, "lat": 6.87736}
{"name": "杜姆亚特", "lng": 31.81332, "lat": 31.416479}
{"name": "达莫", "lng": 79.449997, "lat": 23.83333}
{"name": "达尔彭加", "lng": 85.900002, "lat": 26.16667}
{"name": "达鲁", "lng": -10.84056, "lat": 7.99194}
{"name": "达特恰", "lng": 27.68417, "lat": 36.737782}
{"name": "David", "lng": -82.430847, "lat": 8.42729}
{"name": "土瓦", "lng": 98.199997, "lat": 14.08333}
{"name": "德巴尔", "lng": 20.5275, "lat": 41.525002}
{"name": "代扎", "lng": 34.333221, "lat": -14.3779}
{"name": "代赫里", "lng": 84.183327, "lat": 24.866671}
{"name": "代利斯", "lng": 3.91311, "lat": 36.91716}
{"name": "代尼兹利", "lng": 29.0875, "lat": 37.77417}
{"name": "德瓦", "lng": 22.9, "lat": 45.883331}
{"name": "丹巴德", "lng": 86.449997, "lat": 23.799999}
{"name": "Dhankuta", "lng": 87.333328, "lat": 26.98333}
{"name": "达尔", "lng": 75.300003, "lat": 22.6}
{"name": "达尔马布里", "lng": 78.166672, "lat": 12.13333}
{"name": "达兰萨拉", "lng": 76.321327, "lat": 32.24194}
{"name": "迪法", "lng": 12.61134, "lat": 13.31536}
{"name": "迪格哈", "lng": 87.550003, "lat": 21.683331}
{"name": "迪基利", "lng": 26.890169, "lat": 39.070999}
{"name": "丁博克罗", "lng": -4.70477, "lat": 6.6451}
{"name": "迪纳杰普尔", "lng": 88.638641, "lat": 25.62715}
{"name": "第乌", "lng": 70.982239, "lat": 20.714052}
{"name": "兼巴拉", "lng": 14.75333, "lat": -2.54472}
{"name": "吉布提", "lng": 43.14468, "lat": 11.58767}
{"name": "多贝莱", "lng": 23.27861, "lat": 56.625}
{"name": "多利西", "lng": 12.67389, "lat": -4.19972}
{"name": "汤姆", "lng": -0.0345, "lat": 14.0354}
{"name": "多索", "lng": 3.1937, "lat": 13.049}
{"name": "德鲁日巴", "lng": 33.945278, "lat": 52.042778}
{"name": "杜伯萨里", "lng": 29.16083, "lat": 47.263062}
{"name": "杜卡姆", "lng": 87.25, "lat": 24.26667}
{"name": "敦格布尔", "lng": 73.716667, "lat": 23.83333}
{"name": "杜兰戈", "lng": -104.666672, "lat": 24.033331}
{"name": "杜拉斯诺", "lng": -56.500561, "lat": -33.413059}
{"name": "杜尔格", "lng": 81.283333, "lat": 21.183331}
{"name": "都拉斯", "lng": 19.441389, "lat": 41.323059}
{"name": "迪兹杰", "lng": 31.163891, "lat": 40.83889}
{"name": "德瓦卡", "lng": 68.967781, "lat": 22.239441}
{"name": "埃希特纳赫", "lng": 6.42222, "lat": 49.805561}
{"name": "埃迪尔内", "lng": 26.555969, "lat": 41.677189}
{"name": "密特", "lng": 27.024441, "lat": 39.596111}
{"name": "埃拉特", "lng": 34.948212, "lat": 29.55805}
{"name": "爱拉齐", "lng": 39.223209, "lat": 38.674309}
{"name": "Elblag", "lng": 19.40884, "lat": 54.152199}
{"name": "埃利奥特", "lng": 27.85, "lat": -31.33333}
{"name": "埃姆帕尔姆", "lng": -110.816673, "lat": 27.966669}
{"name": "Encarnacion", "lng": -55.900002, "lat": -27.33333}
{"name": "埃努古", "lng": 7.4943, "lat": 6.4402}
{"name": "埃尔默洛", "lng": 29.98333, "lat": -26.533331}
{"name": "埃尔津詹", "lng": 39.492779, "lat": 39.75222}
{"name": "埃斯基谢希尔", "lng": 30.520559, "lat": 39.776669}
{"name": "埃斯梅拉达", "lng": -78.116943, "lat": 21.852501}
{"name": "索维拉", "lng": -9.77, "lat": 31.512501}
{"name": "埃达沃", "lng": 79.023903, "lat": 26.776899}
{"name": "Evora", "lng": -7.9, "lat": 38.566669}
{"name": "法扎巴德", "lng": 82.133331, "lat": 26.783331}
{"name": "弗莱什蒂", "lng": 27.709169, "lat": 47.573608}
{"name": "法拉", "lng": 62.116379, "lat": 32.374512}
{"name": "福里德布尔", "lng": 89.833328, "lat": 23.6}
{"name": "Faro", "lng": -7.93223, "lat": 37.019371}
{"name": "镍铁", "lng": 91.410004, "lat": 23.01861}
{"name": "费特希耶", "lng": 29.11639, "lat": 36.62167}
{"name": "菲亚纳兰楚阿", "lng": 47.083328, "lat": -21.433331}
{"name": "菲尼凯", "lng": 30.14056, "lat": 36.294998}
{"name": "佛罗里达州", "lng": -78.22583, "lat": 21.524719}
{"name": "佛罗里达州", "lng": -56.214169, "lat": -34.095558}
{"name": "福克沙尼", "lng": 27.183331, "lat": 45.700001}
{"name": "弗朗西斯敦", "lng": 27.507879, "lat": -21.16995}
{"name": "弗里波特", "lng": -78.699997, "lat": 26.533331}
{"name": "福江", "lng": 128.841934, "lat": 32.688061}
{"name": "福井", "lng": 136.222565, "lat": 36.06443}
{"name": "福岛", "lng": 140.467773, "lat": 37.75}
{"name": "福山", "lng": 133.366669, "lat": 34.48333}
{"name": "Funafuti", "lng": 179.194168, "lat": -8.52425}
{"name": "Funchal", "lng": -16.9, "lat": 32.633331}
{"name": "加贝斯", "lng": 10.0982, "lat": 33.881458}
{"name": "哈博罗内", "lng": 25.90859, "lat": -24.65451}
{"name": "加达格", "lng": 75.616669, "lat": 15.41667}
{"name": "加夫萨", "lng": 8.78417, "lat": 34.424999}
{"name": "加尼奥阿", "lng": -5.94371, "lat": 6.12926}
{"name": "加拉茨", "lng": 28.049999, "lat": 45.450001}
{"name": "甘博马", "lng": 15.86444, "lat": -1.87639}
{"name": "甘地", "lng": 72.683327, "lat": 23.216669}
{"name": "甘托克", "lng": 88.616669, "lat": 27.33333}
{"name": "加瓦", "lng": -3.25083, "lat": 10.29917}
{"name": "加里萨", "lng": 39.64011, "lat": -0.45355}
{"name": "加鲁瓦", "lng": 13.4, "lat": 9.3}
{"name": "加雅", "lng": 85.0, "lat": 24.783333}
{"name": "伽耶", "lng": 3.44919, "lat": 11.88435}
{"name": "加济安泰普", "lng": 37.3825, "lat": 37.059441}
{"name": "Gdynia", "lng": 18.531879, "lat": 54.51889}
{"name": "盖梅纳", "lng": 19.76667, "lat": 3.25}
{"name": "乔治敦", "lng": -58.15527, "lat": 6.80448}
{"name": "乔治敦", "lng": -14.76667, "lat": 13.53333}
{"name": "盖夫盖利亚", "lng": 22.502501, "lat": 41.139172}
{"name": "杭济", "lng": 21.783331, "lat": -21.566669}
{"name": "加特", "lng": 10.17278, "lat": 24.96472}
{"name": "加济布尔", "lng": 83.566673, "lat": 25.58333}
{"name": "加兹尼", "lng": 68.426888, "lat": 33.553558}
{"name": "直布罗陀市", "lng": -5.35257, "lat": 36.144741}
{"name": "Gilgit", "lng": 74.308701, "lat": 35.9221}
{"name": "吉雷松", "lng": 38.387409, "lat": 40.916981}
{"name": "吉塞尼", "lng": 29.25639, "lat": -1.70278}
{"name": "朱尔朱", "lng": 25.966669, "lat": 43.883331}
{"name": "戈巴比斯", "lng": 18.966669, "lat": -22.450001}
{"name": "戈德里奇", "lng": -81.716476, "lat": 43.75008}
{"name": "格克切岛", "lng": 25.909019, "lat": 40.201069}
{"name": "戈奎", "lng": 28.9349, "lat": -18.20476}
{"name": "戈拉加特", "lng": 93.966667, "lat": 26.51667}
{"name": "Goleniow", "lng": 14.82854, "lat": 53.563919}
{"name": "戈马", "lng": 29.22278, "lat": -1.67917}
{"name": "贡达", "lng": 81.933327, "lat": 27.133329}
{"name": "贡迪亚", "lng": 80.199997, "lat": 21.450001}
{"name": "戈巴尔布尔", "lng": 84.916672, "lat": 19.26667}
{"name": "戈尔", "lng": 35.533329, "lat": 8.15}
{"name": "戈尔甘", "lng": 54.43475, "lat": 36.838661}
{"name": "古尔", "lng": 10.27035, "lat": 13.9835}
{"name": "格拉达卡奇", "lng": 18.426941, "lat": 44.880829}
{"name": "格雷厄姆", "lng": 26.532761, "lat": -33.304218}
{"name": "格林伍德", "lng": -64.898788, "lat": 44.983452}
{"name": "格雷顿", "lng": 30.592791, "lat": -29.064159}
{"name": "赫鲁特方丹", "lng": 18.116671, "lat": -19.566669}
{"name": "圭亚那", "lng": -85.900002, "lat": 16.4}
{"name": "瓜纳华托", "lng": -101.259102, "lat": 21.018579}
{"name": "瓜纳雷", "lng": -69.742058, "lat": 9.04183}
{"name": "关塔那摩", "lng": -75.209167, "lat": 20.14444}
{"name": "盖尔马", "lng": 7.42608, "lat": 36.462139}
{"name": "古尔柏加", "lng": 76.833328, "lat": 17.33333}
{"name": "库拿", "lng": 77.316673, "lat": 24.65}
{"name": "古尔冈", "lng": 77.033333, "lat": 28.466667}
{"name": "高哈蒂", "lng": 91.750954, "lat": 26.186171}
{"name": "瓜廖尔", "lng": 78.179169, "lat": 26.22361}
{"name": "光州", "lng": 126.915558, "lat": 35.15472}
{"name": "圭鲁", "lng": 29.816669, "lat": -19.450001}
{"name": "久姆里", "lng": 43.84528, "lat": 40.794201}
{"name": "八户", "lng": 141.5, "lat": 40.5}
{"name": "哈迪塞", "lng": 42.378059, "lat": 34.139721}
{"name": "海州", "lng": 125.714722, "lat": 38.040562}
{"name": "哈夫隆格", "lng": 93.033333, "lat": 25.183331}
{"name": "秋港", "lng": 131.416672, "lat": 34.400002}
{"name": "哈杰", "lng": 43.60582, "lat": 15.69425}
{"name": "哈卡里省", "lng": 43.740829, "lat": 37.57444}
{"name": "函馆", "lng": 140.736664, "lat": 41.775829}
{"name": "霍尔迪亚", "lng": 88.109749, "lat": 22.060459}
{"name": "滨松", "lng": 137.733337, "lat": 34.700001}
{"name": "汉密尔顿", "lng": -64.777969, "lat": 32.291489}
{"name": "哈拉雷", "lng": 31.05389, "lat": -17.82935}
{"name": "哈尔多", "lng": 80.116669, "lat": 27.416668}
{"name": "赫尔奈", "lng": 73.099998, "lat": 17.799999}
{"name": "哈索瓦", "lng": 27.933331, "lat": 44.683331}
{"name": "哈桑", "lng": 76.099442, "lat": 13.00056}
{"name": "哈瓦那", "lng": -82.383041, "lat": 23.13302}
{"name": "Hel", "lng": 18.8013, "lat": 54.608139}
{"name": "赫拉特", "lng": 62.199669, "lat": 34.348171}
{"name": "赫曼努斯", "lng": 19.234461, "lat": -34.418701}
{"name": "彦根", "lng": 136.25, "lat": 35.25}
{"name": "姫路", "lng": 134.699997, "lat": 34.816669}
{"name": "平户", "lng": 129.553055, "lat": 33.359718}
{"name": "日田", "lng": 130.933334, "lat": 33.316669}
{"name": "人吉市", "lng": 130.75, "lat": 32.216671}
{"name": "霍姆斯", "lng": 36.723389, "lat": 34.726822}
{"name": "霍纳沃尔", "lng": 74.449997, "lat": 14.28333}
{"name": "霍尼亚拉", "lng": 159.949997, "lat": -9.43333}
{"name": "霍帕", "lng": 41.43787, "lat": 41.405972}
{"name": "希望", "lng": -121.441437, "lat": 49.382992}
{"name": "Horta", "lng": -28.633329, "lat": 38.533329}
{"name": "霍申加巴德", "lng": 77.716667, "lat": 22.75}
{"name": "Huanuco", "lng": -76.241531, "lat": -9.9329}
{"name": "胡埃丁", "lng": 23.049999, "lat": 46.866669}
{"name": "韦韦特南戈", "lng": -91.470833, "lat": 15.31972}
{"name": "雅西", "lng": 27.6, "lat": 47.166672}
{"name": "伊卜", "lng": 44.183331, "lat": 13.96667}
{"name": "揖斐", "lng": 9.75, "lat": 8.18333}
{"name": "Ibra", "lng": 58.533371, "lat": 22.690571}
{"name": "伊夫兰", "lng": -6.3494, "lat": 31.702169}
{"name": "伊迪尔", "lng": 44.044998, "lat": 39.92371}
{"name": "饭田", "lng": 137.82074, "lat": 35.51965}
{"name": "饭冢", "lng": 130.683334, "lat": 33.633331}
{"name": "伊科姆", "lng": 8.70632, "lat": 5.96669}
{"name": "伊拉姆", "lng": 46.422699, "lat": 33.637402}
{"name": "伊莱博", "lng": 20.58333, "lat": -4.31667}
{"name": "伊利兹", "lng": 8.46667, "lat": 26.48333}
{"name": "伊洛林", "lng": 4.55, "lat": 8.5}
{"name": "因普丰多", "lng": 18.066669, "lat": 1.63806}
{"name": "印多尔", "lng": 75.833298, "lat": 22.71792}
{"name": "伊内博卢", "lng": 33.76083, "lat": 41.97472}
{"name": "伊尼扬巴内", "lng": 35.383331, "lat": -23.865}
{"name": "伊农戈", "lng": 18.26667, "lat": -1.95}
{"name": "伊努维克", "lng": -133.721817, "lat": 68.349861}
{"name": "伊朗沙赫尔", "lng": 60.684761, "lat": 27.20245}
{"name": "伊林加", "lng": 35.700001, "lat": -7.76667}
{"name": "石卷", "lng": 141.300003, "lat": 38.416672}
{"name": "伊西罗", "lng": 27.61603, "lat": 2.77391}
{"name": "伊斯肯德伦", "lng": 36.17347, "lat": 36.587181}
{"name": "伊斯梅利亚", "lng": 32.272251, "lat": 30.604271}
{"name": "伊索卡", "lng": 32.63353, "lat": -10.16062}
{"name": "伊斯帕尔塔", "lng": 30.552219, "lat": 37.764439}
{"name": "岩见泽", "lng": 141.75972, "lat": 43.200279}
{"name": "贾巴尔普尔", "lng": 79.950058, "lat": 23.166969}
{"name": "Jacobabad", "lng": 68.438759, "lat": 28.281}
{"name": "贾夫纳", "lng": 80.007423, "lat": 9.66845}
{"name": "杰格德尔布尔", "lng": 82.033333, "lat": 19.066669}
{"name": "斋沙默尔", "lng": 70.918076, "lat": 26.914684}
{"name": "亚伊采", "lng": 17.26556, "lat": 44.34222}
{"name": "贾拉拉巴德", "lng": 70.45153, "lat": 34.426472}
{"name": "哈拉帕", "lng": -95.466667, "lat": 16.5}
{"name": "杰尔拜古里", "lng": 88.73333, "lat": 26.51667}
{"name": "杰马勒布尔", "lng": 89.933327, "lat": 24.91667}
{"name": "查谟", "lng": 74.866669, "lat": 32.73333}
{"name": "贾姆讷格尔", "lng": 70.066673, "lat": 22.466669}
{"name": "詹谢普尔", "lng": 86.183327, "lat": 22.799999}
{"name": "杰穆伊", "lng": 86.216667, "lat": 24.91667}
{"name": "杰什布尔讷格尔", "lng": 84.150002, "lat": 22.9}
{"name": "Jauja", "lng": -75.496559, "lat": -11.77584}
{"name": "叶尔加瓦", "lng": 23.71278, "lat": 56.650002}
{"name": "坚杜拜", "lng": 8.78024, "lat": 36.501141}
{"name": "全州", "lng": 127.148888, "lat": 35.821941}
{"name": "杰索尔", "lng": 89.21315, "lat": 23.16869}
{"name": "贾拉瓦尔", "lng": 76.150002, "lat": 24.6}
{"name": "占夕", "lng": 78.583328, "lat": 25.433331}
{"name": "Jhelum", "lng": 73.726372, "lat": 32.933128}
{"name": "希马尼", "lng": -71.85022, "lat": 18.49169}
{"name": "金波耶", "lng": 20.71722, "lat": 45.791389}
{"name": "神社", "lng": 33.203171, "lat": 0.43902}
{"name": "Jinotega", "lng": -86.00177, "lat": 13.09171}
{"name": "Jiwani", "lng": 61.741669, "lat": 25.049999}
{"name": "焦特布尔", "lng": 73.029999, "lat": 26.286667}
{"name": "约格瓦", "lng": 26.39389, "lat": 58.74667}
{"name": "乔斯", "lng": 8.9, "lat": 9.91667}
{"name": "霍贝拉诺斯", "lng": -81.194443, "lat": 22.80444}
{"name": "Juanjui", "lng": -76.731354, "lat": -7.17785}
{"name": "Juigalpa", "lng": -85.364517, "lat": 12.10629}
{"name": "Juliaca", "lng": -70.133331, "lat": -15.5}
{"name": "Jumla", "lng": 82.18383, "lat": 29.274719}
{"name": "卡巴拉", "lng": -11.55, "lat": 9.58333}
{"name": "卡巴莱", "lng": 29.989929, "lat": -1.24857}
{"name": "卡布韦", "lng": 28.44644, "lat": -14.4469}
{"name": "卡多马", "lng": 29.91534, "lat": -18.333281}
{"name": "卡杜纳", "lng": 7.43828, "lat": 10.52224}
{"name": "凯拉沙哈尔", "lng": 92.01667, "lat": 24.33333}
{"name": "卡卡", "lng": 59.614311, "lat": 37.348209}
{"name": "卡基纳达", "lng": 82.216667, "lat": 16.933331}
{"name": "Kalat", "lng": 66.591599, "lat": 29.02252}
{"name": "卡莱米", "lng": 29.19471, "lat": -5.94749}
{"name": "卡利昂厄特", "lng": 113.933327, "lat": -7.05}
{"name": "Kalisz", "lng": 18.091021, "lat": 51.761089}
{"name": "卡马拉塞", "lng": 103.575638, "lat": 16.33839}
{"name": "坎帕拉", "lng": 32.582191, "lat": 0.31628}
{"name": "贡布", "lng": 104.183327, "lat": 10.61667}
{"name": "卡南加", "lng": 22.41778, "lat": -5.89583}
{"name": "金泽", "lng": 136.625565, "lat": 36.59444}
{"name": "北碧", "lng": 99.548317, "lat": 14.00412}
{"name": "康提", "lng": 80.635597, "lat": 7.2955}
{"name": "康康", "lng": -9.30568, "lat": 10.38542}
{"name": "根尼亚古马里", "lng": 77.566673, "lat": 8.08333}
{"name": "考拉克", "lng": -16.25333, "lat": 14.1825}
{"name": "卡奥马", "lng": 24.799999, "lat": -14.78333}
{"name": "卡普斯卡辛", "lng": -82.433083, "lat": 49.416939}
{"name": "卡拉比克", "lng": 32.627682, "lat": 41.20488}
{"name": "卡来卡", "lng": 79.833328, "lat": 10.91667}
{"name": "卡拉库耳", "lng": 63.833328, "lat": 39.533329}
{"name": "卡拉曼", "lng": 33.215, "lat": 37.18111}
{"name": "卡里巴", "lng": 28.799999, "lat": -16.51667}
{"name": "卡尔纳尔", "lng": 76.98333, "lat": 29.683331}
{"name": "卡罗伊", "lng": 29.692471, "lat": -16.809931}
{"name": "卡龙加", "lng": 33.933331, "lat": -9.93333}
{"name": "卡尔斯", "lng": 43.094952, "lat": 40.60199}
{"name": "加尔瓦尔", "lng": 74.133331, "lat": 14.8}
{"name": "卡斯", "lng": 29.637659, "lat": 36.201759}
{"name": "卡萨马", "lng": 31.18084, "lat": -10.21289}
{"name": "卡萨内", "lng": 25.15, "lat": -17.816669}
{"name": "卡森帕", "lng": 25.833799, "lat": -13.45836}
{"name": "卡塞塞", "lng": 30.08333, "lat": 0.18333}
{"name": "卡尚", "lng": 51.43644, "lat": 33.983082}
{"name": "卡松戈", "lng": 26.66667, "lat": -4.45}
{"name": "卡萨拉", "lng": 36.399979, "lat": 15.45099}
{"name": "卡塞林", "lng": 8.83651, "lat": 35.16758}
{"name": "卡斯塔莫努", "lng": 33.77528, "lat": 41.378052}
{"name": "卡松古", "lng": 33.48333, "lat": -13.03333}
{"name": "卡图", "lng": 23.04929, "lat": -27.69569}
{"name": "卡齐纳", "lng": 7.60063, "lat": 12.98943}
{"name": "胜浦", "lng": 140.300003, "lat": 35.133331}
{"name": "考纳斯", "lng": 23.9, "lat": 54.900002}
{"name": "卡瓦达尔齐", "lng": 22.01194, "lat": 41.43306}
{"name": "卡瓦利", "lng": 79.98333, "lat": 14.91667}
{"name": "卡万布瓦", "lng": 29.07913, "lat": -9.7915}
{"name": "凯斯", "lng": -11.4341, "lat": 14.4417}
{"name": "吉比利", "lng": 8.96903, "lat": 33.704391}
{"name": "凯杜古", "lng": -12.1743, "lat": 12.5579}
{"name": "盖尼特拉", "lng": -6.5802, "lat": 34.261009}
{"name": "凯诺拉", "lng": -94.433731, "lat": 49.816711}
{"name": "刻赤", "lng": 36.475834, "lat": 45.358334}
{"name": "凯雷万", "lng": -16.088791, "lat": 13.4898}
{"name": "克尔曼沙阿", "lng": 47.064999, "lat": 34.314171}
{"name": "克肖德", "lng": 70.25, "lat": 21.299999}
{"name": "Ketrzyn", "lng": 21.375271, "lat": 54.076759}
{"name": "卡久拉霍", "lng": 79.933334, "lat": 24.85}
{"name": "坎曼", "lng": 80.150002, "lat": 17.25}
{"name": "肯德瓦", "lng": 76.333328, "lat": 21.83333}
{"name": "赫尔松", "lng": 32.617802, "lat": 46.655811}
{"name": "霍拉马巴德", "lng": 48.355831, "lat": 33.487782}
{"name": "霍斯特", "lng": 69.92041, "lat": 33.339512}
{"name": "胡里卜盖", "lng": -6.9063, "lat": 32.881081}
{"name": "基达尔", "lng": 1.40778, "lat": 18.441111}
{"name": "基加利", "lng": 30.058849, "lat": -1.94995}
{"name": "Kikinda", "lng": 20.465281, "lat": 45.82972}
{"name": "基奎特", "lng": 18.816191, "lat": -5.04098}
{"name": "基利斯", "lng": 37.115002, "lat": 36.71611}
{"name": "金伯利", "lng": 24.76232, "lat": -28.73226}
{"name": "出版社", "lng": -109.168182, "lat": 51.466808}
{"name": "金迪亚", "lng": -12.86576, "lat": 10.05692}
{"name": "金杜", "lng": 25.950001, "lat": -2.95}
{"name": "金斯敦", "lng": -76.793579, "lat": 17.997021}
{"name": "金斯敦", "lng": -61.224751, "lat": 13.15872}
{"name": "克勒克卡莱", "lng": 33.50639, "lat": 39.84528}
{"name": "克尔克拉雷利", "lng": 27.22521, "lat": 41.735081}
{"name": "基尔库克", "lng": 44.39222, "lat": 35.46806}
{"name": "基洛沃赫拉德", "lng": 32.259701, "lat": 48.513199}
{"name": "克尔谢希尔", "lng": 34.163891, "lat": 39.145828}
{"name": "基西杜古", "lng": -10.09987, "lat": 9.1848}
{"name": "基苏木", "lng": 34.761711, "lat": -0.10221}
{"name": "奇塔", "lng": -9.4895, "lat": 13.0349}
{"name": "基塔莱", "lng": 35.006222, "lat": 1.01572}
{"name": "克莱佩达", "lng": 21.1175, "lat": 55.71722}
{"name": "克莱克斯多普", "lng": 26.666719, "lat": -26.852131}
{"name": "Klodzko", "lng": 16.661449, "lat": 50.434879}
{"name": "居銮", "lng": 103.332802, "lat": 2.0251}
{"name": "克尼斯纳", "lng": 23.047131, "lat": -34.03627}
{"name": "戈代加讷尔", "lng": 77.48333, "lat": 10.23333}
{"name": "科福里杜亚", "lng": -0.25913, "lat": 6.09408}
{"name": "甲府", "lng": 138.568329, "lat": 35.663891}
{"name": "Kohat", "lng": 71.449287, "lat": 33.581959}
{"name": "科希马", "lng": 94.116669, "lat": 25.66667}
{"name": "科尔达", "lng": -14.95, "lat": 12.88333}
{"name": "戈尔哈布尔", "lng": 74.216667, "lat": 16.700001}
{"name": "Kolo", "lng": 18.638651, "lat": 52.200241}
{"name": "Kolobrzeg", "lng": 15.58342, "lat": 54.175652}
{"name": "孔戈洛", "lng": 27.0, "lat": -5.38333}
{"name": "科诺托普", "lng": 33.202629, "lat": 51.240318}
{"name": "戈拉布德", "lng": 82.716667, "lat": 18.816669}
{"name": "科霍戈", "lng": -5.63333, "lat": 9.45}
{"name": "科斯蒂", "lng": 32.663471, "lat": 13.1629}
{"name": "Koszalin", "lng": 16.17222, "lat": 54.194382}
{"name": "戈德亚姆", "lng": 76.51667, "lat": 9.58333}
{"name": "库马克", "lng": 164.283325, "lat": -20.566669}
{"name": "库蒂亚拉", "lng": -5.46421, "lat": 12.39173}
{"name": "Kozienice", "lng": 21.547791, "lat": 51.582939}
{"name": "甲米", "lng": 98.910522, "lat": 8.07257}
{"name": "Kragujevac", "lng": 20.91667, "lat": 44.01667}
{"name": "Kraljevo", "lng": 20.68944, "lat": 43.72583}
{"name": "克里比", "lng": 9.91667, "lat": 2.95}
{"name": "克龙斯塔德", "lng": 27.23488, "lat": -27.65036}
{"name": "Krosno", "lng": 21.77058, "lat": 49.68866}
{"name": "Krusevac", "lng": 21.333891, "lat": 43.580002}
{"name": "古达", "lng": 116.847702, "lat": 6.8837}
{"name": "库克斯", "lng": 20.42194, "lat": 42.076939}
{"name": "熊谷", "lng": 139.383331, "lat": 36.133331}
{"name": "熊本", "lng": 130.741669, "lat": 32.789719}
{"name": "库马西", "lng": -1.62443, "lat": 6.68848}
{"name": "昆达", "lng": 26.56111, "lat": 59.484169}
{"name": "昆都士", "lng": 68.857002, "lat": 36.728958}
{"name": "吴市", "lng": 132.566666, "lat": 34.23333}
{"name": "库鲁曼", "lng": 23.432461, "lat": -27.4524}
{"name": "库鲁内格勒", "lng": 80.362297, "lat": 7.4863}
{"name": "钏路", "lng": 144.374725, "lat": 42.974998}
{"name": "圭城", "lng": 125.24472, "lat": 39.98111}
{"name": "屈塔希亚", "lng": 29.98333, "lat": 39.424171}
{"name": "奎奎", "lng": 29.814859, "lat": -18.928101}
{"name": "拉贝", "lng": -12.28332, "lat": 11.31823}
{"name": "拉各斯", "lng": 3.39583, "lat": 6.45306}
{"name": "兰巴雷内", "lng": 10.24055, "lat": -0.7001}
{"name": "南邦", "lng": 99.492767, "lat": 18.29232}
{"name": "南奔", "lng": 99.007446, "lat": 18.58054}
{"name": "拉姆", "lng": 40.902012, "lat": -2.27169}
{"name": "拉腊什", "lng": -6.15572, "lat": 35.193211}
{"name": "拉纳卡", "lng": 33.629169, "lat": 34.916672}
{"name": "Leba", "lng": 17.55547, "lat": 54.76099}
{"name": "Lebork", "lng": 17.75012, "lat": 54.539211}
{"name": "Legnica", "lng": 16.1619, "lat": 51.21006}
{"name": "Leon", "lng": -86.878036, "lat": 12.43787}
{"name": "莱里克", "lng": 48.412788, "lat": 38.772629}
{"name": "Lesko", "lng": 22.33042, "lat": 49.4701}
{"name": "Leskovac", "lng": 21.94611, "lat": 42.998058}
{"name": "莱斯布里奇", "lng": -112.818558, "lat": 49.699989}
{"name": "莱特拉卡内", "lng": 25.58333, "lat": -21.41667}
{"name": "利本盖", "lng": 18.633329, "lat": 3.65}
{"name": "利比里亚", "lng": -85.437721, "lat": 10.63504}
{"name": "利伯维尔", "lng": 9.45365, "lat": 0.3925}
{"name": "利欣加", "lng": 35.240559, "lat": -13.31278}
{"name": "利克田堡", "lng": 26.159679, "lat": -26.152}
{"name": "利达", "lng": 25.299721, "lat": 53.883331}
{"name": "利耶帕亚", "lng": 21.01667, "lat": 56.51667}
{"name": "Lima", "lng": -77.028236, "lat": -12.04318}
{"name": "利萨拉", "lng": 21.51667, "lat": 2.15}
{"name": "利夫诺", "lng": 17.00778, "lat": 43.826939}
{"name": "劳埃德明斯特", "lng": -110.001572, "lat": 53.283459}
{"name": "洛贾", "lng": 23.433331, "lat": -3.48333}
{"name": "洛德瓦尔", "lng": 35.597271, "lat": 3.11911}
{"name": "罗科贾", "lng": 6.743, "lat": 7.80236}
{"name": "洛美", "lng": 1.21227, "lat": 6.13748}
{"name": "罗安达", "lng": 13.23432, "lat": -8.83682}
{"name": "卢布内", "lng": 32.996941, "lat": 50.016251}
{"name": "卢埃纳", "lng": 19.91667, "lat": -11.78333}
{"name": "卢戈日", "lng": 21.903061, "lat": 45.68861}
{"name": "莱登堡", "lng": 30.459669, "lat": -25.097799}
{"name": "马森塔", "lng": -9.47099, "lat": 8.54351}
{"name": "马达里布尔", "lng": 90.207222, "lat": 23.17528}
{"name": "马多娜", "lng": 26.21698, "lat": 56.853291}
{"name": "前桥", "lng": 139.060837, "lat": 36.391109}
{"name": "马哈拉佩", "lng": 26.814211, "lat": -23.104071}
{"name": "马哈努鲁", "lng": 48.799999, "lat": -19.9}
{"name": "马迪亚", "lng": 11.06222, "lat": 35.504719}
{"name": "马赫穆迪亚", "lng": 29.08333, "lat": 45.083328}
{"name": "迈恩布里", "lng": 79.01667, "lat": 27.23333}
{"name": "舞鹤", "lng": 135.333328, "lat": 35.450001}
{"name": "马杰内", "lng": 118.970703, "lat": -3.5403}
{"name": "马可尼", "lng": -12.05, "lat": 8.88333}
{"name": "马科库", "lng": 12.86419, "lat": 0.57381}
{"name": "马夸", "lng": 15.63333, "lat": 0.00694}
{"name": "枕崎", "lng": 130.316666, "lat": 31.26667}
{"name": "马库尔迪", "lng": 8.5121, "lat": 7.7411}
{"name": "马拉博", "lng": 8.78333, "lat": 3.75}
{"name": "马莱冈", "lng": 74.533333, "lat": 20.549999}
{"name": "马姆斯伯里", "lng": 18.72714, "lat": -33.4608}
{"name": "马姆费", "lng": 9.3123, "lat": 5.754}
{"name": "马木", "lng": -12.09148, "lat": 10.37546}
{"name": "Man", "lng": -7.55383, "lat": 7.41251}
{"name": "马南扎里", "lng": 48.333328, "lat": -21.216669}
{"name": "曼迪", "lng": 76.916672, "lat": 31.716669}
{"name": "曼德拉", "lng": 80.383331, "lat": 22.6}
{"name": "曼迪亚", "lng": 76.895828, "lat": 12.52417}
{"name": "曼加利亚", "lng": 28.58333, "lat": 43.799999}
{"name": "Mangla", "lng": 72.381668, "lat": 31.893061}
{"name": "曼戈切", "lng": 35.264481, "lat": -14.47815}
{"name": "马尼萨", "lng": 27.42646, "lat": 38.612019}
{"name": "马尼沃基", "lng": -75.966049, "lat": 46.383411}
{"name": "曼萨", "lng": 28.89431, "lat": -11.19976}
{"name": "曼萨尼约", "lng": -77.116669, "lat": 20.34333}
{"name": "曼萨尼约", "lng": -104.318787, "lat": 19.05011}
{"name": "毛泽东", "lng": 15.3103, "lat": 14.12116}
{"name": "马金乔", "lng": -68.73333, "lat": -41.25}
{"name": "马拉迪", "lng": 7.10174, "lat": 13.5}
{"name": "马尔丁", "lng": 40.743568, "lat": 37.313091}
{"name": "马盖特", "lng": 30.37052, "lat": -30.8636}
{"name": "马林塔尔", "lng": 17.966669, "lat": -24.633329}
{"name": "马尔马里斯", "lng": 28.27417, "lat": 36.855}
{"name": "马萨比特", "lng": 37.989861, "lat": 2.32839}
{"name": "马山", "lng": 128.572495, "lat": 35.208061}
{"name": "Masatepe", "lng": -86.144669, "lat": 11.9184}
{"name": "马萨瓦", "lng": 39.450001, "lat": 15.60972}
